ccn,facility_name,address,city,state,zip,county,lat,lon,match_quality,source,source_date
010001,SOUTHEAST HEALTH MEDICAL CENTER,1108 ROSS CLARK CIRCLE,DOTHAN,AL,36301,HOUSTON,31.215667,-85.361447,Exact,US Census Geocoder (Public_AR_Current) geocoded from CMS Hospital General Information addresses,2026-05-23
010005,MARSHALL MEDICAL CENTERS,2505 U S HIGHWAY 431 NORTH,BOAZ,AL,35957,MARSHALL,34.221222,-86.159366,Non_Exact,US Census Geocoder (Public_AR_Current) geocoded from CMS Hospital General Information addresses,2026-05-23
010006,NORTH ALABAMA MEDICAL CENTER,1701 VETERANS DRIVE,FLORENCE,AL,35630,LAUDERDALE,34.803808,-87.649945,Exact,US Census Geocoder (Public_AR_Current) geocoded from CMS Hospital General Information addresses,2026-05-23
010007,MIZELL MEMORIAL HOSPITAL,702 N MAIN ST,OPP,AL,36467,COVINGTON,31.291591,-86.255378,Exact,US Census Geocoder (Public_AR_Current) geocoded from CMS Hospital General Information addresses,2026-05-23
010011,ST. VINCENT'S EAST,50 MEDICAL PARK EAST DRIVE,BIRMINGHAM,AL,35235,JEFFERSON,33.590809,-86.668757,Non_Exact,US Census Geocoder (Public_AR_Current) geocoded from CMS Hospital General Information addresses,2026-05-23
010012,DEKALB REGIONAL MEDICAL CENTER,200 MED CENTER DRIVE,FORT PAYNE,AL,35968,DE KALB,34.439857,-85.755988,Non_Exact,US Census Geocoder (Public_AR_Current) geocoded from CMS Hospital General Information addresses,2026-05-23
010016,SHELBY BAPTIST MEDICAL CENTER,1000 FIRST STREET NORTH,ALABASTER,AL,35007,SHELBY,33.251352,-86.814597,Exact,US Census Geocoder (Public_AR_Current) geocoded from CMS Hospital General Information addresses,2026-05-23
010018,UAB CALLAHAN EYE HOSPITAL AUTHORITY,1720 UNIVERSITY BLVD STE 305,BIRMINGHAM,AL,35233,JEFFERSON,33.503172,-86.802429,Exact,US Census Geocoder (Public_AR_Current) geocoded from CMS Hospital General Information addresses,2026-05-23
010019,HELEN KELLER HOSPITAL,1300 SOUTH MONTGOMERY AVENUE,SHEFFIELD,AL,35660,COLBERT,34.745888,-87.698972,Exact,US Census Geocoder (Public_AR_Current) geocoded from CMS Hospital General Information addresses,2026-05-23
010021,DALE MEDICAL CENTER,126 HOSPITAL AVE,OZARK,AL,36360,DALE,31.451773,-85.631011,Exact,US Census Geocoder (Public_AR_Current) geocoded from CMS Hospital General Information addresses,2026-05-23
010022,FLOYD CHEROKEE MEDICAL CENTER,400 NORTHWOOD DR,CENTRE,AL,35960,CHEROKEE,34.162721,-85.652382,Exact,US Census Geocoder (Public_AR_Current) geocoded from CMS Hospital General Information addresses,2026-05-23
010023,BAPTIST MEDICAL CENTER SOUTH,2105 EAST SOUTH BOULEVARD,MONTGOMERY,AL,36116,MONTGOMERY,32.327206,-86.276087,Non_Exact,US Census Geocoder (Public_AR_Current) geocoded from CMS Hospital General Information addresses,2026-05-23
010024,JACKSON HOSPITAL & CLINIC INC,1725 PINE STREET,MONTGOMERY,AL,36106,MONTGOMERY,32.366615,-86.285147,Exact,US Census Geocoder (Public_AR_Current) geocoded from CMS Hospital General Information addresses,2026-05-23
010029,THE EAST ALABAMA HEALTHCARE AUTHORITY,2000 PEPPERELL PARKWAY,OPELIKA,AL,36801,LEE,32.638141,-85.404161,Exact,US Census Geocoder (Public_AR_Current) geocoded from CMS Hospital General Information addresses,2026-05-23
010033,UNIVERSITY OF ALABAMA HOSPITAL,619 SOUTH 19TH STREET,BIRMINGHAM,AL,35233,JEFFERSON,33.506124,-86.801832,Non_Exact,US Census Geocoder (Public_AR_Current) geocoded from CMS Hospital General Information addresses,2026-05-23
010034,COMMUNITY HOSPITAL INC,805 FRIENDSHIP ROAD,TALLASSEE,AL,36078,ELMORE,32.534875,-85.909594,Exact,US Census Geocoder (Public_AR_Current) geocoded from CMS Hospital General Information addresses,2026-05-23
010035,CULLMAN REGIONAL MEDICAL CENTER,1912 ALABAMA HIGHWAY 157,CULLMAN,AL,35058,CULLMAN,34.198631,-86.803697,Exact,US Census Geocoder (Public_AR_Current) geocoded from CMS Hospital General Information addresses,2026-05-23
010036,ANDALUSIA HEALTH,849 SOUTH THREE NOTCH STREET,ANDALUSIA,AL,36420,COVINGTON,31.29672,-86.496634,Exact,US Census Geocoder (Public_AR_Current) geocoded from CMS Hospital General Information addresses,2026-05-23
010040,GADSDEN REGIONAL MEDICAL CENTER,1007 GOODYEAR AVENUE,GADSDEN,AL,35903,ETOWAH,34.009363,-85.969513,Exact,US Census Geocoder (Public_AR_Current) geocoded from CMS Hospital General Information addresses,2026-05-23
010044,MARION REGIONAL MEDICAL CENTER,1256 MILITARY STREET SOUTH,HAMILTON,AL,35570,MARION,34.115239,-87.98952,Non_Exact,US Census Geocoder (Public_AR_Current) geocoded from CMS Hospital General Information addresses,2026-05-23
010045,FAYETTE MEDICAL CENTER,1653 TEMPLE AVENUE NORTH,FAYETTE,AL,35555,FAYETTE,33.706856,-87.824386,Exact,US Census Geocoder (Public_AR_Current) geocoded from CMS Hospital General Information addresses,2026-05-23
010046,RIVERVIEW REGIONAL MEDICAL CENTER,600 SOUTH THIRD STREET,GADSDEN,AL,35901,ETOWAH,34.005008,-86.003894,Exact,US Census Geocoder (Public_AR_Current) geocoded from CMS Hospital General Information addresses,2026-05-23
010049,MEDICAL CENTER ENTERPRISE,400 N EDWARDS STREET,ENTERPRISE,AL,36330,COFFEE,31.318148,-85.85519,Exact,US Census Geocoder (Public_AR_Current) geocoded from CMS Hospital General Information addresses,2026-05-23
010051,GREENE COUNTY HOSPITAL,509 WILSON AVENUE,EUTAW,AL,35462,GREENE,32.843458,-87.889472,Exact,US Census Geocoder (Public_AR_Current) geocoded from CMS Hospital General Information addresses,2026-05-23
010052,LAKE MARTIN COMMUNITY HOSPITAL,201 MARIARDEN ROAD,DADEVILLE,AL,36853,TALLAPOOSA,32.819988,-85.741579,Exact,US Census Geocoder (Public_AR_Current) geocoded from CMS Hospital General Information addresses,2026-05-23
010055,FLOWERS HOSPITAL,4370 WEST MAIN STREET,DOTHAN,AL,36302,HOUSTON,31.235999,-85.45768,Non_Exact,US Census Geocoder (Public_AR_Current) geocoded from CMS Hospital General Information addresses,2026-05-23
010056,ST VINCENT'S BIRMINGHAM,810 ST VINCENT'S DRIVE,BIRMINGHAM,AL,35205,JEFFERSON,33.508918,-86.788456,Exact,US Census Geocoder (Public_AR_Current) geocoded from CMS Hospital General Information addresses,2026-05-23
010058,BIBB MEDICAL CENTER,208 PIERSON AVE,CENTREVILLE,AL,35042,BIBB,32.950921,-87.148168,Exact,US Census Geocoder (Public_AR_Current) geocoded from CMS Hospital General Information addresses,2026-05-23
010061,HIGHLANDS MEDICAL CENTER,380 WOODS COVE ROAD,SCOTTSBORO,AL,35768,JACKSON,34.66111,-86.047352,Exact,US Census Geocoder (Public_AR_Current) geocoded from CMS Hospital General Information addresses,2026-05-23
010078,NORTHEAST ALABAMA REGIONAL MEDICAL CENTER,400 EAST 10TH STREET,ANNISTON,AL,36207,CALHOUN,33.657057,-85.823309,Exact,US Census Geocoder (Public_AR_Current) geocoded from CMS Hospital General Information addresses,2026-05-23
010079,ATHENS LIMESTONE HOSPITAL,700 WEST MARKET STREET,ATHENS,AL,35611,LIMESTONE,34.803566,-86.977299,Non_Exact,US Census Geocoder (Public_AR_Current) geocoded from CMS Hospital General Information addresses,2026-05-23
010083,BALDWIN HEALTH,1613 NORTH MCKENZIE STREET,FOLEY,AL,36535,BALDWIN,30.426642,-87.683268,Non_Exact,US Census Geocoder (Public_AR_Current) geocoded from CMS Hospital General Information addresses,2026-05-23
010085,DECATUR MORGAN HOSPITAL - DECATUR CAMPUS,1201 7TH STREET SE,DECATUR,AL,35601,MORGAN,34.591141,-86.972661,Exact,US Census Geocoder (Public_AR_Current) geocoded from CMS Hospital General Information addresses,2026-05-23
010086,NORTHWEST MEDICAL CENTER,1530 U S HIGHWAY 43,WINFIELD,AL,35594,FAYETTE,33.930085,-87.825826,Exact,US Census Geocoder (Public_AR_Current) geocoded from CMS Hospital General Information addresses,2026-05-23
010089,WALKER BAPTIST MEDICAL CENTER,3400 HIGHWAY 78 EAST,JASPER,AL,35502,WALKER,33.841395,-87.237424,Non_Exact,US Census Geocoder (Public_AR_Current) geocoded from CMS Hospital General Information addresses,2026-05-23
010091,GROVE HILL MEMORIAL HOSPITAL,295 JACKSON HWY S,GROVE HILL,AL,36451,CLARKE,31.694488,-87.777055,Non_Exact,US Census Geocoder (Public_AR_Current) geocoded from CMS Hospital General Information addresses,2026-05-23
010092,DCH REGIONAL MEDICAL CENTER,809 UNIVERSITY BOULEVARD EAST,TUSCALOOSA,AL,35401,TUSCALOOSA,33.20625,-87.526761,Exact,US Census Geocoder (Public_AR_Current) geocoded from CMS Hospital General Information addresses,2026-05-23
010097,ELMORE COMMUNITY HOSPITAL,500 HOSPITAL DRIVE,WETUMPKA,AL,36092,ELMORE,32.551527,-86.187312,Exact,US Census Geocoder (Public_AR_Current) geocoded from CMS Hospital General Information addresses,2026-05-23
010099,D W MCMILLAN MEMORIAL HOSPITAL,1301 BELLEVILLE AVENUE,BREWTON,AL,36426,ESCAMBIA,31.127165,-87.072472,Exact,US Census Geocoder (Public_AR_Current) geocoded from CMS Hospital General Information addresses,2026-05-23
010100,THOMAS HOSPITAL,750 MORPHY AVENUE,FAIRHOPE,AL,36532,BALDWIN,30.519915,-87.88988,Exact,US Census Geocoder (Public_AR_Current) geocoded from CMS Hospital General Information addresses,2026-05-23
010101,CITIZENS BAPTIST MEDICAL CENTER,604 STONE AVENUE,TALLADEGA,AL,35160,TALLADEGA,33.439854,-86.092095,Exact,US Census Geocoder (Public_AR_Current) geocoded from CMS Hospital General Information addresses,2026-05-23
010103,PRINCETON BAPTIST MEDICAL CENTER,701 PRINCETON AVENUE SOUTHWEST,BIRMINGHAM,AL,35211,JEFFERSON,33.499498,-86.84532,Exact,US Census Geocoder (Public_AR_Current) geocoded from CMS Hospital General Information addresses,2026-05-23
010108,PRATTVILLE BAPTIST HOSPITAL,124 S MEMORIAL DR,PRATTVILLE,AL,36067,AUTAUGA,32.464106,-86.450999,Exact,US Census Geocoder (Public_AR_Current) geocoded from CMS Hospital General Information addresses,2026-05-23
010110,BULLOCK COUNTY HOSPITAL,102 WEST CONECUH AVENUE,UNION SPRINGS,AL,36089,BULLOCK,32.14624,-85.716145,Non_Exact,US Census Geocoder (Public_AR_Current) geocoded from CMS Hospital General Information addresses,2026-05-23
010113,MOBILE INFIRMARY MEDICAL CENTER,5 MOBILE INFIRMARY CIRCLE,MOBILE,AL,36607,MOBILE,30.696653,-88.079346,Exact,US Census Geocoder (Public_AR_Current) geocoded from CMS Hospital General Information addresses,2026-05-23
010114,"MEDICAL WEST, AN AFFILIATE OF UAB HEALTH SYSTEM",995 9TH AVENUE SOUTHWEST,BESSEMER,AL,35022,JEFFERSON,33.377248,-86.98811,Exact,US Census Geocoder (Public_AR_Current) geocoded from CMS Hospital General Information addresses,2026-05-23
010118,VAUGHAN REGIONAL MEDICAL CENTER PARKWAY CAMPUS,1015 MEDICAL CENTER PARKWAY,SELMA,AL,36701,DALLAS,32.430059,-87.054993,Exact,US Census Geocoder (Public_AR_Current) geocoded from CMS Hospital General Information addresses,2026-05-23
010120,MONROE COUNTY HOSPITAL,2016 SOUTH ALABAMA AVENUE,MONROEVILLE,AL,36460,MONROE,31.496694,-87.319617,Non_Exact,US Census Geocoder (Public_AR_Current) geocoded from CMS Hospital General Information addresses,2026-05-23
010126,TROY REGIONAL MEDICAL CENTER,1330 HIGHWAY 231 SOUTH,TROY,AL,36081,PIKE,31.780309,-85.945379,Non_Exact,US Census Geocoder (Public_AR_Current) geocoded from CMS Hospital General Information addresses,2026-05-23
010129,NORTH BALDWIN INFIRMARY,1815 HAND AVENUE,BAY MINETTE,AL,36507,BALDWIN,30.902499,-87.783417,Exact,US Census Geocoder (Public_AR_Current) geocoded from CMS Hospital General Information addresses,2026-05-23
010130,ST VINCENT'S ST CLAIR,7063 VETERANS PARKWAY,PELL CITY,AL,35125,ST. CLAIR,33.605832,-86.302894,Exact,US Census Geocoder (Public_AR_Current) geocoded from CMS Hospital General Information addresses,2026-05-23
010131,CRESTWOOD MEDICAL CENTER,ONE HOSPITAL DR SE,HUNTSVILLE,AL,35801,MADISON,34.69232,-86.572425,Non_Exact,US Census Geocoder (Public_AR_Current) geocoded from CMS Hospital General Information addresses,2026-05-23
010138,HILL HOSPITAL OF SUMTER COUNTY,751 DERBY DRIVE,YORK,AL,36925,SUMTER,32.492404,-88.296227,Exact,US Census Geocoder (Public_AR_Current) geocoded from CMS Hospital General Information addresses,2026-05-23
010144,SPRINGHILL MEDICAL CENTER,3719 DAUPHIN STREET,MOBILE,AL,36608,MOBILE,30.685414,-88.136036,Exact,US Census Geocoder (Public_AR_Current) geocoded from CMS Hospital General Information addresses,2026-05-23
010148,EVERGREEN MEDICAL CENTER,101 CRESTVIEW AVENUE,EVERGREEN,AL,36401,CONECUH,31.431231,-86.941917,Non_Exact,US Census Geocoder (Public_AR_Current) geocoded from CMS Hospital General Information addresses,2026-05-23
010149,BAPTIST MEDICAL CENTER EAST,400 TAYLOR ROAD,MONTGOMERY,AL,36117,MONTGOMERY,32.387897,-86.17609,Exact,US Census Geocoder (Public_AR_Current) geocoded from CMS Hospital General Information addresses,2026-05-23
01014F,BIRMINGHAM VA MEDICAL CENTER,700 SOUTH 19TH STREET,BIRMINGHAM,AL,35233,JEFFERSON,33.505116,-86.801304,Non_Exact,US Census Geocoder (Public_AR_Current) geocoded from CMS Hospital General Information addresses,2026-05-23
010150,THE HEALTH CARE AUTHORITY OF THE CITY OF GREENVILLE- LV STABLER HOSPITAL,29 L V STABLER DRIVE,GREENVILLE,AL,36037,BUTLER,31.828267,-86.646504,Exact,US Census Geocoder (Public_AR_Current) geocoded from CMS Hospital General Information addresses,2026-05-23
010157,NORTH ALABAMA SHOALS HOSPITAL,201 WEST AVALON AVENUE,MUSCLE SHOALS,AL,35661,COLBERT,34.745018,-87.676457,Non_Exact,US Census Geocoder (Public_AR_Current) geocoded from CMS Hospital General Information addresses,2026-05-23
010164,COOSA VALLEY MEDICAL CENTER,315 W HICKORY ST,SYLACAUGA,AL,35150,TALLADEGA,33.16463,-86.254103,Exact,US Census Geocoder (Public_AR_Current) geocoded from CMS Hospital General Information addresses,2026-05-23
010168,JACK HUGHSTON MEMORIAL HOSPITAL,4401 RIVER CHASE DRIVE,PHENIX CITY,AL,36867,RUSSELL,32.509965,-85.006592,Exact,US Census Geocoder (Public_AR_Current) geocoded from CMS Hospital General Information addresses,2026-05-23
010169,ATMORE COMMUNITY HOSPITAL,401 MEDICAL PARK DRIVE,ATMORE,AL,36502,ESCAMBIA,31.017329,-87.47965,Exact,US Census Geocoder (Public_AR_Current) geocoded from CMS Hospital General Information addresses,2026-05-23
010173,ST VINCENT'S CHILTON,2030 LAY DAM ROAD,CLANTON,AL,35045,CHILTON,32.869983,-86.62179,Exact,US Census Geocoder (Public_AR_Current) geocoded from CMS Hospital General Information addresses,2026-05-23
01019F,VA CENTRAL ALABAMA HEALTHCARE SYSTEM - MONTGOMERY,215 PERRY HILL ROAD,MONTGOMERY,AL,36109,MONTGOMERY,32.38042,-86.246614,Exact,US Census Geocoder (Public_AR_Current) geocoded from CMS Hospital General Information addresses,2026-05-23
01021F,TUSCALOOSA VA MEDICAL CENTER,3701 LOOP ROAD EAST,TUSCALOOSA,AL,35404,TUSCALOOSA,33.19306,-87.488592,Non_Exact,US Census Geocoder (Public_AR_Current) geocoded from CMS Hospital General Information addresses,2026-05-23
010779,BULLOCK COUNTY HOSPITAL,102 WEST CONECUH AVENUE,UNION SPRINGS,AL,36089,BULLOCK,32.14624,-85.716145,Non_Exact,US Census Geocoder (Public_AR_Current) geocoded from CMS Hospital General Information addresses,2026-05-23
010780,EAMC - LANIER,4800 48TH STREET,VALLEY,AL,36854,CHAMBERS,32.825097,-85.170535,Exact,US Census Geocoder (Public_AR_Current) geocoded from CMS Hospital General Information addresses,2026-05-23
010781,J PAUL JONES HOSPITAL,317 MCWILLIAMS AVENUE,CAMDEN,AL,36726,WILCOX,31.997103,-87.299501,Exact,US Census Geocoder (Public_AR_Current) geocoded from CMS Hospital General Information addresses,2026-05-23
011300,WASHINGTON COUNTY HOSPITAL,14600 ST. STEPHENS AVENUE,CHATOM,AL,36518,WASHINGTON,31.460194,-88.235242,Exact,US Census Geocoder (Public_AR_Current) geocoded from CMS Hospital General Information addresses,2026-05-23
011302,RED BAY HOSPITAL,211 HOSPITAL ROAD,RED BAY,AL,35582,FRANKLIN,34.457494,-88.1457,Exact,US Census Geocoder (Public_AR_Current) geocoded from CMS Hospital General Information addresses,2026-05-23
011305,ST VINCENTS BLOUNT,150 GILBREATH DRIVE,ONEONTA,AL,35121,BLOUNT,33.933404,-86.495089,Exact,US Census Geocoder (Public_AR_Current) geocoded from CMS Hospital General Information addresses,2026-05-23
011306,TANNER MEDICAL CENTER-EAST ALABAMA,1032 MAIN STREET SOUTH,WEDOWEE,AL,36278,RANDOLPH,33.316787,-85.487522,Non_Exact,US Census Geocoder (Public_AR_Current) geocoded from CMS Hospital General Information addresses,2026-05-23
011307,MEDICAL CENTER BARBOUR,820 W WASHINGTON ST,EUFAULA,AL,36027,BARBOUR,31.888044,-85.156609,Exact,US Census Geocoder (Public_AR_Current) geocoded from CMS Hospital General Information addresses,2026-05-23
013300,THE CHILDREN'S HOSPITAL OF ALABAMA,1600 SEVENTH AVENUE SOUTH,BIRMINGHAM,AL,35233,JEFFERSON,33.503292,-86.805432,Exact,US Census Geocoder (Public_AR_Current) geocoded from CMS Hospital General Information addresses,2026-05-23
013301,USA HEALTH CHILDREN'S & WOMEN'S HOSPITAL,1700 CENTER STREET,MOBILE,AL,36604,MOBILE,30.696417,-88.078163,Exact,US Census Geocoder (Public_AR_Current) geocoded from CMS Hospital General Information addresses,2026-05-23
014000,HILL CREST BEHAVIORAL HEALTH SERVICES,6869 FIFTH AVENUE SOUTH,BIRMINGHAM,AL,35212,JEFFERSON,33.54899,-86.730838,Exact,US Census Geocoder (Public_AR_Current) geocoded from CMS Hospital General Information addresses,2026-05-23
014006,MOUNTAIN VIEW HOSPITAL,3201 SCENIC HIGHWAY,GADSDEN,AL,35902,ETOWAH,34.093132,-85.993573,Non_Exact,US Census Geocoder (Public_AR_Current) geocoded from CMS Hospital General Information addresses,2026-05-23
014012,MARY S HARPER GERIATRIC PSYCHIATRY CENTER,201 UNIVERSITY BLVD,TUSCALOOSA,AL,35401,TUSCALOOSA,33.207467,-87.534788,Non_Exact,US Census Geocoder (Public_AR_Current) geocoded from CMS Hospital General Information addresses,2026-05-23
014014,BAYPOINTE BEHAVIORAL HEALTH,5800 SOUTHLAND DRIVE,MOBILE,AL,36693,MOBILE,30.623806,-88.177918,Exact,US Census Geocoder (Public_AR_Current) geocoded from CMS Hospital General Information addresses,2026-05-23
014016,"SANCTUARY AT THE WOODLANDS, THE","1910 CHEROKEE AVENUE, SW",CULLMAN,AL,35055,CULLMAN,34.151616,-86.843018,Exact,US Census Geocoder (Public_AR_Current) geocoded from CMS Hospital General Information addresses,2026-05-23
014017,EASTPOINTE HOSPITAL,7400 ROPER LANE,DAPHNE,AL,36526,BALDWIN,30.635376,-87.898094,Exact,US Census Geocoder (Public_AR_Current) geocoded from CMS Hospital General Information addresses,2026-05-23
014018,UNITY PSYCHIATRIC CARE - HUNTSVILLE,"5315 MILLENIUM DRIVE, NW",HUNTSVILLE,AL,35806,MADISON,34.753472,-86.662598,Non_Exact,US Census Geocoder (Public_AR_Current) geocoded from CMS Hospital General Information addresses,2026-05-23
020001,PROVIDENCE ALASKA MEDICAL CENTER,3200 PROVIDENCE DRIVE,ANCHORAGE,AK,99508,ANCHORAGE,61.189789,-149.818933,Exact,US Census Geocoder (Public_AR_Current) geocoded from CMS Hospital General Information addresses,2026-05-23
020006,MAT-SU REGIONAL MEDICAL CENTER,2500 SOUTH WOODWORTH LOOP,PALMER,AK,99645,MATANUSKA-SUSITNA,61.562025,-149.260439,Exact,US Census Geocoder (Public_AR_Current) geocoded from CMS Hospital General Information addresses,2026-05-23
020008,BARTLETT REGIONAL HOSPITAL,3260 HOSPITAL DR,JUNEAU,AK,99801,JUNEAU,58.330112,-134.470479,Exact,US Census Geocoder (Public_AR_Current) geocoded from CMS Hospital General Information addresses,2026-05-23
020012,FAIRBANKS MEMORIAL HOSPITAL,1650 COWLES STREET,FAIRBANKS,AK,99701,FAIRBANKS NORTH STAR,64.834609,-147.739136,Exact,US Census Geocoder (Public_AR_Current) geocoded from CMS Hospital General Information addresses,2026-05-23
020017,ALASKA REGIONAL HOSPITAL,2801 DEBARR ROAD,ANCHORAGE,AK,99508,ANCHORAGE,61.209767,-149.829265,Exact,US Census Geocoder (Public_AR_Current) geocoded from CMS Hospital General Information addresses,2026-05-23
020024,CENTRAL PENINSULA GENERAL HOSPITAL,250 HOSPITAL PLACE,SOLDOTNA,AK,99669,KENAI PENINSULA,60.494559,-151.077853,Exact,US Census Geocoder (Public_AR_Current) geocoded from CMS Hospital General Information addresses,2026-05-23
020026,ALASKA NATIVE MEDICAL CENTER,4315 DIPLOMACY DR,ANCHORAGE,AK,99508,ANCHORAGE,61.181938,-149.802878,Exact,US Census Geocoder (Public_AR_Current) geocoded from CMS Hospital General Information addresses,2026-05-23
02013F,673rd Medical Group (Joint Base Elmendorf-Richardson),673 MDG 5955 Zeamer Ave,JBER,AK,99506,ANCHORAGE,61.236828,-149.748482,Non_Exact,US Census Geocoder (Public_AR_Current) geocoded from CMS Hospital General Information addresses,2026-05-23
021302,PROVIDENCE SEWARD HOSPITAL,"417 FIRST AVENUE, PO BOX 365",SEWARD,AK,99664,KENAI PENINSULA,60.105054,-149.445532,Non_Exact,US Census Geocoder (Public_AR_Current) geocoded from CMS Hospital General Information addresses,2026-05-23
021305,SEARHC WRANGELL MEDICAL CENTER & LTC,232 WOOD STREET,WRANGELL,AK,99929,WRANGELL CITY AND BOROUGH,56.46278,-132.374492,Non_Exact,US Census Geocoder (Public_AR_Current) geocoded from CMS Hospital General Information addresses,2026-05-23
021306,PROVIDENCE KODIAK ISLAND MEDICAL CTR,1915 EAST REZANOF DRIVE,KODIAK,AK,99615,KODIAK ISLAND BOROUGH,57.800096,-152.375395,Exact,US Census Geocoder (Public_AR_Current) geocoded from CMS Hospital General Information addresses,2026-05-23
021307,CORDOVA COMMUNITY MEDICAL CENTER,PO BOX 160 - 602 CHASE AVENUE,CORDOVA,AK,99574,VALDEZ-CORDOVA,60.541275,-145.752851,Non_Exact,US Census Geocoder (Public_AR_Current) geocoded from CMS Hospital General Information addresses,2026-05-23
021311,PEACEHEALTH KETCHIKAN MEDICAL CENTER,3100 TONGASS AVENUE,KETCHIKAN,AK,99901,KETCHIKAN GATEWAY,55.352898,-131.686314,Exact,US Census Geocoder (Public_AR_Current) geocoded from CMS Hospital General Information addresses,2026-05-23
021312,SAMUEL SIMMONDS MEMORIAL HOSPITAL,7000 UULA ST,BARROW,AK,99723,NORTH SLOPE BOROUH,71.298925,-156.728726,Exact,US Census Geocoder (Public_AR_Current) geocoded from CMS Hospital General Information addresses,2026-05-23
021313,SOUTH PENINSULA HOSPITAL,4300 BARTLETT ST,HOMER,AK,99603,KENAI PENINSULA,59.651653,-151.550027,Exact,US Census Geocoder (Public_AR_Current) geocoded from CMS Hospital General Information addresses,2026-05-23
021314,SOUTHEAST ALASKA REGIONAL HEALTH CONSORTIUM,222 TONGASS DR,SITKA,AK,99835,SITKA BOROUGH,57.051525,-135.356418,Exact,US Census Geocoder (Public_AR_Current) geocoded from CMS Hospital General Information addresses,2026-05-23
024001,NORTH STAR HOSPITAL,2530 DEBARR RD,ANCHORAGE,AK,99508,ANCHORAGE,61.208539,-149.833307,Exact,US Census Geocoder (Public_AR_Current) geocoded from CMS Hospital General Information addresses,2026-05-23
024002,ALASKA PSYCHIATRIC INSTITUTE,3700 PIPER STREET,ANCHORAGE,AK,99508,ANCHORAGE,61.186543,-149.827565,Exact,US Census Geocoder (Public_AR_Current) geocoded from CMS Hospital General Information addresses,2026-05-23
030002,BANNER - UNIVERSITY MEDICAL CENTER PHOENIX,1111 EAST MCDOWELL ROAD,PHOENIX,AZ,85006,MARICOPA,33.465655,-112.05949,Exact,US Census Geocoder (Public_AR_Current) geocoded from CMS Hospital General Information addresses,2026-05-23
030006,TUCSON MEDICAL CENTER,5301 EAST GRANT ROAD,TUCSON,AZ,85712,PIMA,32.250724,-110.879764,Exact,US Census Geocoder (Public_AR_Current) geocoded from CMS Hospital General Information addresses,2026-05-23
030007,VERDE VALLEY MEDICAL CENTER,269 SOUTH CANDY LANE,COTTONWOOD,AZ,86326,YAVAPAI,34.735324,-112.031514,Exact,US Census Geocoder (Public_AR_Current) geocoded from CMS Hospital General Information addresses,2026-05-23
030011,ST JOSEPH'S HOSPITAL,350 NORTH WILMOT ROAD,TUCSON,AZ,85711,PIMA,32.225791,-110.857861,Exact,US Census Geocoder (Public_AR_Current) geocoded from CMS Hospital General Information addresses,2026-05-23
030012,YAVAPAI REGIONAL MEDICAL CENTER,1003 WILLOW CREEK ROAD,PRESCOTT,AZ,86301,YAVAPAI,34.558351,-112.482005,Exact,US Census Geocoder (Public_AR_Current) geocoded from CMS Hospital General Information addresses,2026-05-23
030013,YUMA REGIONAL MEDICAL CENTER,2400 SOUTH AVENUE A,YUMA,AZ,85364,YUMA,32.683896,-114.633326,Exact,US Census Geocoder (Public_AR_Current) geocoded from CMS Hospital General Information addresses,2026-05-23
030014,HONOR HEALTH JOHN C. LINCOLN MEDICAL CENTER,250 EAST DUNLAP AVENUE,PHOENIX,AZ,85020,MARICOPA,33.567811,-112.071145,Exact,US Census Geocoder (Public_AR_Current) geocoded from CMS Hospital General Information addresses,2026-05-23
030016,BANNER CASA GRANDE MEDICAL CENTER,1800 EAST FLORENCE BOULEVARD,CASA GRANDE,AZ,85122,PINAL,32.879638,-111.710024,Exact,US Census Geocoder (Public_AR_Current) geocoded from CMS Hospital General Information addresses,2026-05-23
030022,VALLEYWISE HEALTH MEDICAL CENTER,2601 EAST ROOSEVELT STREET,PHOENIX,AZ,85008,MARICOPA,33.4585,-112.02499,Exact,US Census Geocoder (Public_AR_Current) geocoded from CMS Hospital General Information addresses,2026-05-23
030023,FLAGSTAFF MEDICAL CENTER,1200 NORTH BEAVER STREET,FLAGSTAFF,AZ,86001,COCONINO,35.209019,-111.644956,Exact,US Census Geocoder (Public_AR_Current) geocoded from CMS Hospital General Information addresses,2026-05-23
030024,ST JOSEPHS HOSPITAL AND MEDICAL CENTER,350 WEST THOMAS ROAD,PHOENIX,AZ,85013,MARICOPA,33.480365,-112.078611,Exact,US Census Geocoder (Public_AR_Current) geocoded from CMS Hospital General Information addresses,2026-05-23
030030,ABRAZO CENTRAL CAMPUS,2000 WEST BETHANY HOME ROAD,PHOENIX,AZ,85015,MARICOPA,33.524179,-112.101938,Exact,US Census Geocoder (Public_AR_Current) geocoded from CMS Hospital General Information addresses,2026-05-23
030036,CHANDLER REGIONAL MEDICAL CENTER,1955 WEST FRYE ROAD,CHANDLER,AZ,85224,MARICOPA,33.29863,-111.875147,Exact,US Census Geocoder (Public_AR_Current) geocoded from CMS Hospital General Information addresses,2026-05-23
030037,HONORHEALTH TEMPE MEDICAL CENTER,1800 EAST VAN BUREN STREET,PHOENIX,AZ,85006,MARICOPA,33.451486,-112.043305,Exact,US Census Geocoder (Public_AR_Current) geocoded from CMS Hospital General Information addresses,2026-05-23
030038,HONORHEALTH SCOTTSDALE OSBORN MEDICAL CENTER,7400 EAST OSBORN ROAD,SCOTTSDALE,AZ,85251,MARICOPA,33.48771,-111.923838,Exact,US Census Geocoder (Public_AR_Current) geocoded from CMS Hospital General Information addresses,2026-05-23
030043,CANYON VISTA MEDICAL CENTER,5700 EAST HIGHWAY 90,SIERRA VISTA,AZ,85635,COCHISE,31.554547,-110.230394,Non_Exact,US Census Geocoder (Public_AR_Current) geocoded from CMS Hospital General Information addresses,2026-05-23
030061,BANNER BOSWELL MEDICAL CENTER,13632 N 99TH AVE,SUN CITY,AZ,85351,MARICOPA,33.605452,-112.268916,Exact,US Census Geocoder (Public_AR_Current) geocoded from CMS Hospital General Information addresses,2026-05-23
030064,BANNER - UNIVERSITY MEDICAL CENTER TUCSON CAMPUS,1625 NORTH CAMPBELL AVENUE,TUCSON,AZ,85719,PIMA,32.241945,-110.944065,Exact,US Census Geocoder (Public_AR_Current) geocoded from CMS Hospital General Information addresses,2026-05-23
030065,BANNER DESERT MEDICAL CENTER,1400 SOUTH  DOBSON ROAD,MESA,AZ,85202,MARICOPA,33.389227,-111.874725,Exact,US Census Geocoder (Public_AR_Current) geocoded from CMS Hospital General Information addresses,2026-05-23
030069,HAVASU REGIONAL MEDICAL CENTER,101 CIVIC CENTER LANE,LAKE HAVASU CITY,AZ,86403,MOHAVE,34.479821,-114.339585,Exact,US Census Geocoder (Public_AR_Current) geocoded from CMS Hospital General Information addresses,2026-05-23
030078,PHOENIX INDIAN MEDICAL CENTER,4212 NORTH 16TH STREET,PHOENIX,AZ,85016,MARICOPA,33.496723,-112.047671,Exact,US Census Geocoder (Public_AR_Current) geocoded from CMS Hospital General Information addresses,2026-05-23
030083,ABRAZO SCOTTSDALE CAMPUS,3929 EAST BELL ROAD,PHOENIX,AZ,85032,MARICOPA,33.640637,-111.997293,Exact,US Census Geocoder (Public_AR_Current) geocoded from CMS Hospital General Information addresses,2026-05-23
030087,HONORHEALTH SCOTTSDALE SHEA MEDICAL CENTER,9003 EAST SHEA BOULEVARD,SCOTTSDALE,AZ,85260,MARICOPA,33.582493,-111.885871,Exact,US Census Geocoder (Public_AR_Current) geocoded from CMS Hospital General Information addresses,2026-05-23
030088,BANNER BAYWOOD MEDICAL CENTER,6644 EAST BAYWOOD AVENUE,MESA,AZ,85206,MARICOPA,33.410495,-111.68797,Exact,US Census Geocoder (Public_AR_Current) geocoded from CMS Hospital General Information addresses,2026-05-23
030089,BANNER THUNDERBIRD MEDICAL CENTER,5555 WEST THUNDERBIRD ROAD,GLENDALE,AZ,85306,MARICOPA,33.610696,-112.180386,Exact,US Census Geocoder (Public_AR_Current) geocoded from CMS Hospital General Information addresses,2026-05-23
030092,HONORHEALTH DEER VALLEY MEDICAL CENTER,19829 NORTH 27TH AVENUE,PHOENIX,AZ,85027,MARICOPA,33.665998,-112.117172,Exact,US Census Geocoder (Public_AR_Current) geocoded from CMS Hospital General Information addresses,2026-05-23
030093,BANNER DEL E. WEBB MEDICAL CENTER,14502 WEST MEEKER BOULEVARD,SUN CITY WEST,AZ,85375,MARICOPA,33.658503,-112.37155,Exact,US Census Geocoder (Public_AR_Current) geocoded from CMS Hospital General Information addresses,2026-05-23
030094,ABRAZO ARROWHEAD HOSPITAL,18701 NORTH 67TH AVENUE,GLENDALE,AZ,85308,MARICOPA,33.654949,-112.202898,Exact,US Census Geocoder (Public_AR_Current) geocoded from CMS Hospital General Information addresses,2026-05-23
030101,WESTERN ARIZONA REGIONAL MEDICAL CENTER,2735 SILVER CREEK ROAD,BULLHEAD CITY,AZ,86442,MOHAVE,35.110001,-114.555764,Exact,US Census Geocoder (Public_AR_Current) geocoded from CMS Hospital General Information addresses,2026-05-23
030103,MAYO CLINIC HOSPITAL,5777 EAST MAYO BOULEVARD,PHOENIX,AZ,85054,MARICOPA,33.663345,-111.955758,Exact,US Census Geocoder (Public_AR_Current) geocoded from CMS Hospital General Information addresses,2026-05-23
030105,BANNER HEART HOSPITAL,6750 EAST BAYWOOD AVENUE,MESA,AZ,85206,MARICOPA,33.410439,-111.685523,Exact,US Census Geocoder (Public_AR_Current) geocoded from CMS Hospital General Information addresses,2026-05-23
030108,THE CORE INSTITUTE SPECIALTY HOSP,6501 NORTH 19TH AVENUE,PHOENIX,AZ,85015,MARICOPA,33.53145,-112.099572,Exact,US Census Geocoder (Public_AR_Current) geocoded from CMS Hospital General Information addresses,2026-05-23
030111,BANNER-UNIVERSITY MEDICAL CENTER SOUTH CAMPUS,2800 EAST AJO WAY,TUCSON,AZ,85713,PIMA,32.17789,-110.931946,Exact,US Census Geocoder (Public_AR_Current) geocoded from CMS Hospital General Information addresses,2026-05-23
030112,ARIZONA ORTHOPEDIC AND SURGICAL SPECIALTY HOSPITAL,750 NORTH 40TH STREET,PHOENIX,AZ,85008,MARICOPA,33.455822,-111.995311,Exact,US Census Geocoder (Public_AR_Current) geocoded from CMS Hospital General Information addresses,2026-05-23
030113,WHITERIVER PHS INDIAN HOSPITAL,200 WEST HOSPITAL DRIVE  (PO BOX 860),WHITERIVER,AZ,85941,NAVAJO,33.875904,-109.960992,Non_Exact,US Census Geocoder (Public_AR_Current) geocoded from CMS Hospital General Information addresses,2026-05-23
030114,ORO VALLEY HOSPITAL,1551 EAST TANGERINE ROAD,ORO VALLEY,AZ,85755,PIMA,32.425135,-110.957158,Exact,US Census Geocoder (Public_AR_Current) geocoded from CMS Hospital General Information addresses,2026-05-23
030117,VALLEY VIEW MEDICAL CENTER,5330 SOUTH HIGHWAY 95,FORT MOHAVE,AZ,86426,MOHAVE,35.003212,-114.597998,Non_Exact,US Census Geocoder (Public_AR_Current) geocoded from CMS Hospital General Information addresses,2026-05-23
030119,MERCY GILBERT MEDICAL CENTER,3555 SOUTH VAL VISTA DRIVE,GILBERT,AZ,85297,MARICOPA,33.286162,-111.755342,Exact,US Census Geocoder (Public_AR_Current) geocoded from CMS Hospital General Information addresses,2026-05-23
030122,BANNER GATEWAY MEDICAL CENTER,1900 NORTH HIGLEY ROAD,GILBERT,AZ,85234,MARICOPA,33.384378,-111.719508,Non_Exact,US Census Geocoder (Public_AR_Current) geocoded from CMS Hospital General Information addresses,2026-05-23
030123,HONORHEALTH SCOTTSDALE THOMPSON PEAK MED CTR,7400 EAST THOMPSON PEAK PARKWAY,SCOTTSDALE,AZ,85255,MARICOPA,33.669851,-111.922139,Exact,US Census Geocoder (Public_AR_Current) geocoded from CMS Hospital General Information addresses,2026-05-23
03012F,PHOENIX VA MEDICAL CENTER,650 E. INDIAN SCHOOL ROAD,PHOENIX,AZ,85012,MARICOPA,33.494839,-112.066785,Exact,US Census Geocoder (Public_AR_Current) geocoded from CMS Hospital General Information addresses,2026-05-23
030130,BANNER IRONWOOD MEDICAL CENTER,37000 NORTH GANTZEL ROAD,QUEEN CREEK,AZ,85140,PINAL,33.214587,-111.563531,Exact,US Census Geocoder (Public_AR_Current) geocoded from CMS Hospital General Information addresses,2026-05-23
030134,BANNER GOLDFIELD MEDICAL CENTER,2050 WEST SOUTHERN AVENUE,APACHE JUNCTION,AZ,85120,PINAL,33.393391,-111.566641,Exact,US Census Geocoder (Public_AR_Current) geocoded from CMS Hospital General Information addresses,2026-05-23
030136,DIGNITY HEALTH - ARIZONA GENERAL HOSPITAL,7171 SOUTH 51ST AVENUE,LAVEEN,AZ,85339,MARICOPA,33.38181,-112.168216,Exact,US Census Geocoder (Public_AR_Current) geocoded from CMS Hospital General Information addresses,2026-05-23
03013F,VA S. ARIZONA HEALTHCARE SYSTEM,3601 SOUTH SIXTH AVENUE,TUCSON,AZ,85723,PIMA,32.18211,-110.968054,Exact,US Census Geocoder (Public_AR_Current) geocoded from CMS Hospital General Information addresses,2026-05-23
030146,HONORHEALTH SONORAN CROSSING MEDICAL CENTER,33400 NORTH 32ND AVENUE,PHOENIX,AZ,85085,MARICOPA,33.785669,-112.128682,Exact,US Census Geocoder (Public_AR_Current) geocoded from CMS Hospital General Information addresses,2026-05-23
030147,BANNER OCOTILLO MEDICAL CENTER,1405 SOUTH ALMA SCHOOL ROAD,CHANDLER,AZ,85286,MARICOPA,33.286551,-111.858658,Exact,US Census Geocoder (Public_AR_Current) geocoded from CMS Hospital General Information addresses,2026-05-23
030148,NORTHWEST MEDICAL CENTER SAHUARITA,16260 SOUTH RANCHO SAHUARITA BOULEVARD,SAHUARITA,AZ,85629,PIMA,31.956441,-110.98324,Exact,US Census Geocoder (Public_AR_Current) geocoded from CMS Hospital General Information addresses,2026-05-23
030154,EXCEPTIONAL COMMUNITY HOSPITAL YUMA,2648 SOUTH ARABY RD,YUMA,AZ,85365,YUMA,32.679927,-114.521593,Exact,US Census Geocoder (Public_AR_Current) geocoded from CMS Hospital General Information addresses,2026-05-23
030155,EXCEPTIONAL COMMUNITY HOSPITAL BULLHEAD CITY,2365 HIGHWAY 95,BULLHEAD CITY,AZ,86442,MOHAVE,35.100398,-114.598125,Exact,US Census Geocoder (Public_AR_Current) geocoded from CMS Hospital General Information addresses,2026-05-23
03033F,VA NORTHERN ARIZONA HEALTHCARE SYSTEM,500 HIGHWAY 89 NORTH,PRESCOTT,AZ,86313,YAVAPAI,34.752897,-112.454174,Non_Exact,US Census Geocoder (Public_AR_Current) geocoded from CMS Hospital General Information addresses,2026-05-23
031300,WICKENBURG COMMUNITY HOSPITAL,520 ROSE LANE,WICKENBURG,AZ,85390,MARICOPA,33.978108,-112.739177,Exact,US Census Geocoder (Public_AR_Current) geocoded from CMS Hospital General Information addresses,2026-05-23
031301,BENSON HOSPITAL,450 SOUTH OCOTILLO AVENUE,BENSON,AZ,85602,COCHISE,31.96491,-110.307193,Exact,US Census Geocoder (Public_AR_Current) geocoded from CMS Hospital General Information addresses,2026-05-23
031302,"NORTHERN COCHISE COMMUNITY HOSPITAL, INC.",901 WEST REX ALLEN DRIVE,WILLCOX,AZ,85643,COCHISE,32.264296,-109.837669,Exact,US Census Geocoder (Public_AR_Current) geocoded from CMS Hospital General Information addresses,2026-05-23
031311,LITTLE COLORADO MEDICAL CENTER,1501 NORTH WILLIAMSON AVENUE,WINSLOW,AZ,86047,NAVAJO,35.034773,-110.691788,Exact,US Census Geocoder (Public_AR_Current) geocoded from CMS Hospital General Information addresses,2026-05-23
031312,COPPER QUEEN COMMUNITY HOSPITAL,101 COLE AVENUE,BISBEE,AZ,85603,COCHISE,31.417191,-109.8833,Exact,US Census Geocoder (Public_AR_Current) geocoded from CMS Hospital General Information addresses,2026-05-23
031313,HOLY CROSS HOSPITAL,1171 WEST TARGET RANGE ROAD,NOGALES,AZ,85621,SANTA CRUZ,31.341007,-110.958875,Exact,US Census Geocoder (Public_AR_Current) geocoded from CMS Hospital General Information addresses,2026-05-23
031315,WHITE MOUNTAIN REGIONAL MEDICAL CENTER,118 SOUTH MOUNTAIN AVENUE,SPRINGERVILLE,AZ,85938,APACHE,34.129503,-109.288066,Exact,US Census Geocoder (Public_AR_Current) geocoded from CMS Hospital General Information addresses,2026-05-23
031317,LA PAZ REGIONAL HOSPITAL,1200 WEST MOHAVE ROAD,PARKER,AZ,85344,LAPAZ,34.13558,-114.284732,Non_Exact,US Census Geocoder (Public_AR_Current) geocoded from CMS Hospital General Information addresses,2026-05-23
031319,MT. GRAHAM REGIONAL MEDICAL CENTER,1600 SOUTH 20TH AVENUE,SAFFORD,AZ,85546,GRAHAM,32.821812,-109.733061,Exact,US Census Geocoder (Public_AR_Current) geocoded from CMS Hospital General Information addresses,2026-05-23
033302,PHOENIX CHILDREN'S HOSPITAL,1919 EAST THOMAS ROAD,PHOENIX,AZ,85016,MARICOPA,33.480192,-112.041885,Exact,US Census Geocoder (Public_AR_Current) geocoded from CMS Hospital General Information addresses,2026-05-23
034004,BANNER BEHAVIORAL HEALTH HOSPITAL,7575 EAST EARLL DRIVE,SCOTTSDALE,AZ,85251,MARICOPA,33.483943,-111.918757,Exact,US Census Geocoder (Public_AR_Current) geocoded from CMS Hospital General Information addresses,2026-05-23
034013,COLLEGE MEDICAL CENTER PHOENIX,1800 EAST VAN BUREN,PHOENIX,AZ,85006,MARICOPA,33.451486,-112.043305,Non_Exact,US Census Geocoder (Public_AR_Current) geocoded from CMS Hospital General Information addresses,2026-05-23
034020,HAVEN BEHAVIORAL HOSPITAL OF PHOENIX,"1201 SOUTH 7TH AVENUE, SUITE 200",PHOENIX,AZ,85007,MARICOPA,33.436115,-112.08245,Exact,US Census Geocoder (Public_AR_Current) geocoded from CMS Hospital General Information addresses,2026-05-23
034021,ARIZONA STATE HOSPITAL,2500 EAST VAN BUREN STREET,PHOENIX,AZ,85008,MARICOPA,33.451405,-112.029038,Exact,US Census Geocoder (Public_AR_Current) geocoded from CMS Hospital General Information addresses,2026-05-23
034022,SONORA BEHAVIORAL HEALTH HOSPITAL,6050 NORTH CORONA ROAD,TUCSON,AZ,85704,PIMA,32.318426,-111.007825,Exact,US Census Geocoder (Public_AR_Current) geocoded from CMS Hospital General Information addresses,2026-05-23
034023,THE GUIDANCE CENTER,2187 NORTH VICKEY STREET,FLAGSTAFF,AZ,86004,COCONINO,35.206502,-111.606049,Exact,US Census Geocoder (Public_AR_Current) geocoded from CMS Hospital General Information addresses,2026-05-23
034024,AURORA BEHAVIORAL HEALTH SYSTEM,6015 WEST PEORIA  AVENUE,GLENDALE,AZ,85302,MARICOPA,33.581858,-112.187997,Exact,US Census Geocoder (Public_AR_Current) geocoded from CMS Hospital General Information addresses,2026-05-23
034025,THE HEALING PLACE,181 WHIPPLE ST,PRESCOTT,AZ,86301,YAVAPAI,34.556826,-112.471223,Exact,US Census Geocoder (Public_AR_Current) geocoded from CMS Hospital General Information addresses,2026-05-23
034026,VALLEY HOSPITAL,3550 EAST PINCHOT AVENUE,PHOENIX,AZ,85018,MARICOPA,33.482365,-112.005261,Exact,US Census Geocoder (Public_AR_Current) geocoded from CMS Hospital General Information addresses,2026-05-23
034027,CHANGEPOINT PSYCHIATRIC HOSPITAL,1920 WEST COMMERCE DRIVE,LAKESIDE,AZ,85929,NAVAJO,34.165423,-109.974569,Exact,US Census Geocoder (Public_AR_Current) geocoded from CMS Hospital General Information addresses,2026-05-23
034028,AURORA BEHAVIORAL HEALTHCARE-TEMPE,6350 SOUTH MAPLE AVENUE,TEMPE,AZ,85283,MARICOPA,33.36453,-111.938497,Exact,US Census Geocoder (Public_AR_Current) geocoded from CMS Hospital General Information addresses,2026-05-23
034029,OASIS BEHAVIORAL HEALTH HOSPITAL,"2190 NORTH GRACE BOULEVARD, BUILDING A",CHANDLER,AZ,85225,MARICOPA,33.337215,-111.847231,Non_Exact,US Census Geocoder (Public_AR_Current) geocoded from CMS Hospital General Information addresses,2026-05-23
034030,PALO VERDE BEHAVIORAL HEALTH,2695 NORTH CRAYCROFT ROAD,TUCSON,AZ,85712,PIMA,32.255882,-110.875339,Exact,US Census Geocoder (Public_AR_Current) geocoded from CMS Hospital General Information addresses,2026-05-23
034031,QUAIL RUN BEHAVIORAL HEALTH,2545 WEST QUAIL AVENUE,PHOENIX,AZ,85027,MARICOPA,33.678388,-112.113557,Exact,US Census Geocoder (Public_AR_Current) geocoded from CMS Hospital General Information addresses,2026-05-23
034032,COPPER SPRINGS EAST- GILBERT,10550 WEST MCDOWELL ROAD,AVONDALE,AZ,85392,MARICOPA,33.464576,-112.287495,Exact,US Census Geocoder (Public_AR_Current) geocoded from CMS Hospital General Information addresses,2026-05-23
034033,EL DORADO SPRINGS,1400 NORTH WILMOT ROAD,TUCSON,AZ,85712,PIMA,32.239343,-110.857818,Exact,US Census Geocoder (Public_AR_Current) geocoded from CMS Hospital General Information addresses,2026-05-23
034034,DESTINY SPRINGS HEALTHCARE,17300 NORTH DYSART ROAD,SURPRISE,AZ,85378,MARICOPA,33.640568,-112.342237,Exact,US Census Geocoder (Public_AR_Current) geocoded from CMS Hospital General Information addresses,2026-05-23
034035,AVENIR BEHAVIORAL HEALTH CENTER,16561 NORTH PARKVIEW PLACE,SURPRISE,AZ,85374,MARICOPA,33.634595,-112.381811,Exact,US Census Geocoder (Public_AR_Current) geocoded from CMS Hospital General Information addresses,2026-05-23
034038,"PHOENIX MEDICAL PSYCHIATRIC HOSPITAL, LLC",1346 EAST MCDOWELL ROAD,PHOENIX,AZ,85006,MARICOPA,33.465803,-112.053201,Exact,US Census Geocoder (Public_AR_Current) geocoded from CMS Hospital General Information addresses,2026-05-23
040001,SILOAM SPRINGS REGIONAL HOSPITAL,603 NORTH PROGRESS AVENUE,SILOAM SPRINGS,AR,72761,BENTON,36.188677,-94.510283,Exact,US Census Geocoder (Public_AR_Current) geocoded from CMS Hospital General Information addresses,2026-05-23
040002,JOHNSON REGIONAL MEDICAL CENTER,1100 EAST POPLAR STREET,CLARKSVILLE,AR,72830,JOHNSON,35.464344,-93.445765,Exact,US Census Geocoder (Public_AR_Current) geocoded from CMS Hospital General Information addresses,2026-05-23
040004,WASHINGTON REGIONAL MEDICAL CENTER,3215 N NORTH HILLS BOULEVARD,FAYETTEVILLE,AR,72703,WASHINGTON,36.108017,-94.155844,Exact,US Census Geocoder (Public_AR_Current) geocoded from CMS Hospital General Information addresses,2026-05-23
040010,MERCY HOSPITAL NORTHWEST ARKANSAS,2710 SOUTH RIFE MEDICAL LANE,ROGERS,AR,72758,BENTON,36.31122,-94.184485,Non_Exact,US Census Geocoder (Public_AR_Current) geocoded from CMS Hospital General Information addresses,2026-05-23
040011,CHAMBERS MEMORIAL HOSPITAL,719 DETROIT STREET,DANVILLE,AR,72833,YELL,35.054264,-93.388493,Exact,US Census Geocoder (Public_AR_Current) geocoded from CMS Hospital General Information addresses,2026-05-23
040014,WHITE COUNTY MEDICAL CENTER,3214 EAST RACE AVENUE,SEARCY,AR,72143,WHITE,35.250513,-91.696779,Exact,US Census Geocoder (Public_AR_Current) geocoded from CMS Hospital General Information addresses,2026-05-23
040016,University of Arkansas Medical Sciences,4301 WEST MARKHAM STREET MAIL SLOT 612,LITTLE ROCK,AR,72205,PULASKI,34.751481,-92.319954,Non_Exact,US Census Geocoder (Public_AR_Current) geocoded from CMS Hospital General Information addresses,2026-05-23
040017,NORTH ARKANSAS REGIONAL MEDICAL CENTER,620 NORTH MAIN STREET,HARRISON,AR,72601,BOONE,36.235781,-93.107224,Exact,US Census Geocoder (Public_AR_Current) geocoded from CMS Hospital General Information addresses,2026-05-23
040018,BAPTIST HEALTH - VAN BUREN,211 CRAWFORD MEMORIAL DRIVE,VAN BUREN,AR,72956,CRAWFORD,35.436255,-94.338791,Exact,US Census Geocoder (Public_AR_Current) geocoded from CMS Hospital General Information addresses,2026-05-23
040019,FORREST CITY MEDICAL CENTER,1601 NEWCASTLE ROAD,FORREST CITY,AR,72335,ST. FRANCIS,35.034517,-90.77516,Non_Exact,US Census Geocoder (Public_AR_Current) geocoded from CMS Hospital General Information addresses,2026-05-23
040020,ST BERNARDS MEDICAL CENTER,225 E WASHINGTON AVE,JONESBORO,AR,72401,CRAIGHEAD,35.838314,-90.703877,Exact,US Census Geocoder (Public_AR_Current) geocoded from CMS Hospital General Information addresses,2026-05-23
040022,NORTHWEST MEDICAL CENTER-SPRINGDALE,609 WEST MAPLE AVENUE,SPRINGDALE,AR,72764,WASHINGTON,36.181298,-94.136251,Non_Exact,US Census Geocoder (Public_AR_Current) geocoded from CMS Hospital General Information addresses,2026-05-23
040026,CHI ST. VINCENT HOSPITAL HOT SPRINGS,300 WERNER STREET,HOT SPRINGS,AR,71903,GARLAND,34.46609,-93.066971,Non_Exact,US Census Geocoder (Public_AR_Current) geocoded from CMS Hospital General Information addresses,2026-05-23
040027,BAXTER HEALTH,624 HOSPITAL DRIVE,MOUNTAIN HOME,AR,72653,BAXTER,36.342926,-92.394503,Exact,US Census Geocoder (Public_AR_Current) geocoded from CMS Hospital General Information addresses,2026-05-23
040029,"CONWAY REGIONAL MEDICAL CENTER, INC",2302 COLLEGE AVENUE,CONWAY,AR,72034,FAULKNER,35.084888,-92.456868,Exact,US Census Geocoder (Public_AR_Current) geocoded from CMS Hospital General Information addresses,2026-05-23
040036,BAPTIST HEALTH MEDICAL CENTER NORTH LITTLE ROCK,3333 SPRINGHILL DRIVE,NORTH LITTLE ROCK,AR,72117,PULASKI,34.786648,-92.220029,Exact,US Census Geocoder (Public_AR_Current) geocoded from CMS Hospital General Information addresses,2026-05-23
040039,ARKANSAS METHODIST MEDICAL CENTER,900 WEST KINGSHIGHWAY,PARAGOULD,AR,72450,GREENE,36.052505,-90.497805,Exact,US Census Geocoder (Public_AR_Current) geocoded from CMS Hospital General Information addresses,2026-05-23
040041,ST MARYS REGIONAL MEDICAL CENTER,1808 WEST MAIN STREET,RUSSELLVILLE,AR,72801,POPE,35.282944,-93.149978,Exact,US Census Geocoder (Public_AR_Current) geocoded from CMS Hospital General Information addresses,2026-05-23
040050,OUACHITA COUNTY MEDICAL CENTER,638 CALIFORNIA AVENUE,CAMDEN,AR,71701,OUACHITA,33.576869,-92.834007,Non_Exact,US Census Geocoder (Public_AR_Current) geocoded from CMS Hospital General Information addresses,2026-05-23
040051,BAPTIST HEALTH MEDICAL CENTER-DREW COUNTY,778 SCOGIN DRIVE,MONTICELLO,AR,71655,DREW,33.61021,-91.815061,Exact,US Census Geocoder (Public_AR_Current) geocoded from CMS Hospital General Information addresses,2026-05-23
040055,BAPTIST HEALTH - FORT SMITH,1001 TOWSON AVENUE,FORT SMITH,AR,72901,SEBASTIAN,35.374975,-94.421245,Exact,US Census Geocoder (Public_AR_Current) geocoded from CMS Hospital General Information addresses,2026-05-23
040062,MERCY HOSPITAL FORT SMITH,7301 ROGERS AVE,FORT SMITH,AR,72903,SEBASTIAN,35.353346,-94.352159,Exact,US Census Geocoder (Public_AR_Current) geocoded from CMS Hospital General Information addresses,2026-05-23
040069,GREAT RIVER MEDICAL CENTER,1520 N DIVISION STREET,BLYTHEVILLE,AR,72315,MISSISSIPPI,35.942932,-89.91884,Exact,US Census Geocoder (Public_AR_Current) geocoded from CMS Hospital General Information addresses,2026-05-23
040071,JEFFERSON REGIONAL MEDICAL CENTER,1600 WEST 40TH AVENUE,PINE BLUFF,AR,71603,JEFFERSON,34.189022,-92.018223,Exact,US Census Geocoder (Public_AR_Current) geocoded from CMS Hospital General Information addresses,2026-05-23
040072,BAPTIST HEALTH MEDICAL CENTER-STUTTGART,1703 NORTH BUERKLE ST,STUTTGART,AR,72160,ARKANSAS,34.516805,-91.557618,Exact,US Census Geocoder (Public_AR_Current) geocoded from CMS Hospital General Information addresses,2026-05-23
040076,BAPTIST HEALTH MEDICAL CENTER-HOT SPRINGS COUNTY,1001 SCHNEIDER DRIVE,MALVERN,AR,72104,HOT SPRING,34.360029,-92.785504,Exact,US Census Geocoder (Public_AR_Current) geocoded from CMS Hospital General Information addresses,2026-05-23
040078,NATIONAL PARK MEDICAL CENTER,1910 MALVERN AVENUE,HOT SPRINGS,AR,71901,GARLAND,34.486668,-93.033903,Exact,US Census Geocoder (Public_AR_Current) geocoded from CMS Hospital General Information addresses,2026-05-23
040084,SALINE MEMORIAL HOSPITAL,1 MEDICAL PARK DRIVE,BENTON,AR,72015,SALINE,34.606748,-92.479026,Non_Exact,US Census Geocoder (Public_AR_Current) geocoded from CMS Hospital General Information addresses,2026-05-23
040088,SOUTH ARKANSAS REGIONAL HOSPITAL LLC,700 WEST GROVE STREET,EL DORADO,AR,71730,UNION,33.218439,-92.672333,Exact,US Census Geocoder (Public_AR_Current) geocoded from CMS Hospital General Information addresses,2026-05-23
04010F,VA CENTRAL AR. VETERANS HEALTHCARE SYSTEM LR,4300 WEST SEVENTH STREET,LITTLE ROCK,AR,72205,PULASKI,34.744939,-92.321177,Exact,US Census Geocoder (Public_AR_Current) geocoded from CMS Hospital General Information addresses,2026-05-23
040118,"BAPTIST MEMORIAL HOSPITAL JONESBORO, INC.",4800 EAST JOHNSON AVENUE,JONESBORO,AR,72405,CRAIGHEAD,35.864259,-90.638963,Exact,US Census Geocoder (Public_AR_Current) geocoded from CMS Hospital General Information addresses,2026-05-23
040119,WHITE RIVER MEDICAL CENTER,1710 HARRISON STREET,BATESVILLE,AR,72503,INDEPENDENCE,35.769514,-91.634692,Non_Exact,US Census Geocoder (Public_AR_Current) geocoded from CMS Hospital General Information addresses,2026-05-23
040132,LEVI HOSPITAL,300 PROSPECT AVE,HOT SPRINGS,AR,71901,GARLAND,34.509934,-93.056834,Exact,US Census Geocoder (Public_AR_Current) geocoded from CMS Hospital General Information addresses,2026-05-23
040134,"ARKANSAS HEART HOSPITAL, LLC",1701 S SHACKLEFORD ROAD,LITTLE ROCK,AR,72211,PULASKI,34.739524,-92.394375,Exact,US Census Geocoder (Public_AR_Current) geocoded from CMS Hospital General Information addresses,2026-05-23
040137,ST VINCENT MEDICAL CENTER/NORTH,2215 WILDWOOD AVENUE,SHERWOOD,AR,72120,PULASKI,34.814328,-92.208341,Exact,US Census Geocoder (Public_AR_Current) geocoded from CMS Hospital General Information addresses,2026-05-23
040147,ARKANSAS SURGICAL HOSPITAL,5201 NORTH SHORE DRIVE,NO LITTLE ROCK,AR,72118,PULASKI,34.801883,-92.349214,Exact,US Census Geocoder (Public_AR_Current) geocoded from CMS Hospital General Information addresses,2026-05-23
040153,SOUTHWEST ARKANSAS REGIONAL MEDICAL CENTER LLC,2001 SOUTH MAIN,HOPE,AR,71801,HEMPSTEAD,33.649046,-93.586997,Non_Exact,US Census Geocoder (Public_AR_Current) geocoded from CMS Hospital General Information addresses,2026-05-23
040154,BAPTIST HEALTH MEDICAL CENTER- CONWAY,1555 EXCHANGE AVENUE,CONWAY,AR,72032,FAULKNER,35.056444,-92.416826,Exact,US Census Geocoder (Public_AR_Current) geocoded from CMS Hospital General Information addresses,2026-05-23
040156,"BAPTIST MEMORIAL HOSPITAL-CRITTENDEN, INC",2100 NORTH SEVENTH STREET,WEST MEMPHIS,AR,72301,CRITTENDEN,35.167858,-90.175883,Exact,US Census Geocoder (Public_AR_Current) geocoded from CMS Hospital General Information addresses,2026-05-23
040164,UNITY HEALTH - JACKSONVILLE,1400 BRADEN STREET,JACKSONVILLE,AR,72076,PULASKI,34.872434,-92.124578,Exact,US Census Geocoder (Public_AR_Current) geocoded from CMS Hospital General Information addresses,2026-05-23
040779,ST BERNARDS FIVE RIVERS MEDICAL CENTER,2801 MEDICAL CENTER DRIVE,POCAHONTAS,AR,72455,RANDOLPH,36.290625,-90.996414,Exact,US Census Geocoder (Public_AR_Current) geocoded from CMS Hospital General Information addresses,2026-05-23
040780,EUREKA SPRINGS HOSPITAL COMMISSION,24 NORRIS STREET,EUREKA SPRINGS,AR,72632,CARROLL,36.400382,-93.744543,Exact,US Census Geocoder (Public_AR_Current) geocoded from CMS Hospital General Information addresses,2026-05-23
040781,HELENA REGIONAL MEDICAL CENTER,1801 MARTIN LUTHER KING JR DRIVE,HELENA,AR,72342,PHILLIPS,34.498969,-90.597482,Exact,US Census Geocoder (Public_AR_Current) geocoded from CMS Hospital General Information addresses,2026-05-23
040782,SOUTH MISSISSIPPI COUNTY REGIONAL MEDICAL CENTER,611 WEST LEE AVENUE,OSCEOLA,AR,72370,MISSISSIPPI,35.700173,-89.97499,Exact,US Census Geocoder (Public_AR_Current) geocoded from CMS Hospital General Information addresses,2026-05-23
040783,"DEWITT HOSPITAL & NURSING HOME, INC",1641 WHITEHEAD DRIVE,DE WITT,AR,72042,ARKANSAS,34.279402,-91.337298,Non_Exact,US Census Geocoder (Public_AR_Current) geocoded from CMS Hospital General Information addresses,2026-05-23
041300,MERCY HOSPITAL PARIS,500 EAST ACADEMY,PARIS,AR,72855,LOGAN,35.289935,-93.725414,Non_Exact,US Census Geocoder (Public_AR_Current) geocoded from CMS Hospital General Information addresses,2026-05-23
041302,DARDANELLE REGIONAL MEDICAL CENTER,200 NORTH THIRD STREET,DARDANELLE,AR,72834,YELL,35.220273,-93.156558,Exact,US Census Geocoder (Public_AR_Current) geocoded from CMS Hospital General Information addresses,2026-05-23
041303,MERCY HOSPITAL OZARK,801 WEST RIVER STREET,OZARK,AR,72949,FRANKLIN,35.485972,-93.833215,Exact,US Census Geocoder (Public_AR_Current) geocoded from CMS Hospital General Information addresses,2026-05-23
041305,MERCY HOSPITAL WALDRON,1341 WEST SIXTH STREET,WALDRON,AR,72958,SCOTT,34.896744,-94.106643,Exact,US Census Geocoder (Public_AR_Current) geocoded from CMS Hospital General Information addresses,2026-05-23
041306,IZARD REGIONAL HOSPITAL LLC,61 GRASSE STREET,CALICO ROCK,AR,72519,BAXTER,36.126638,-92.12852,Exact,US Census Geocoder (Public_AR_Current) geocoded from CMS Hospital General Information addresses,2026-05-23
041307,CROSSRIDGE COMMUNITY HOSPITAL,310 SOUTH FALLS BOULEVARD,WYNNE,AR,72396,CROSS,35.220318,-90.787341,Exact,US Census Geocoder (Public_AR_Current) geocoded from CMS Hospital General Information addresses,2026-05-23
041308,MCGEHEE HOSPITAL,900 SOUTH THIRD STREET,MCGEHEE,AR,71654,DESHA,33.618826,-91.393347,Exact,US Census Geocoder (Public_AR_Current) geocoded from CMS Hospital General Information addresses,2026-05-23
041309,LAWRENCE MEMORIAL HOSPITAL,1309 WEST MAIN STREET,WALNUT RIDGE,AR,72476,LAWRENCE,36.074649,-90.967017,Exact,US Census Geocoder (Public_AR_Current) geocoded from CMS Hospital General Information addresses,2026-05-23
041310,STONE COUNTY MEDICAL CENTER,2106 EAST MAIN STREET,MOUNTAIN VIEW,AR,72560,STONE,35.855956,-92.083407,Exact,US Census Geocoder (Public_AR_Current) geocoded from CMS Hospital General Information addresses,2026-05-23
041311,HOWARD MEMORIAL HOSPITAL,130 MEDICAL CIRCLE,NASHVILLE,AR,71852,HOWARD,33.951235,-93.88035,Exact,US Census Geocoder (Public_AR_Current) geocoded from CMS Hospital General Information addresses,2026-05-23
041313,OZARK HEALTH,2500 HIGHWAY 65 SOUTH,CLINTON,AR,72031,VAN BUREN,35.557966,-92.449589,Exact,US Census Geocoder (Public_AR_Current) geocoded from CMS Hospital General Information addresses,2026-05-23
041317,DALLAS COUNTY MEDICAL CENTER,201 CLIFTON STREET,FORDYCE,AR,71742,DALLAS,33.808934,-92.425493,Non_Exact,US Census Geocoder (Public_AR_Current) geocoded from CMS Hospital General Information addresses,2026-05-23
041318,MERCY HOSPITAL BOONEVILLE,880 WEST MAIN,BOONEVILLE,AR,72927,LOGAN,35.141128,-93.935984,Non_Exact,US Census Geocoder (Public_AR_Current) geocoded from CMS Hospital General Information addresses,2026-05-23
041320,LITTLE RIVER MEMORIAL HOSPITAL,451 WEST LOCKE STREET,ASHDOWN,AR,71822,LITTLE RIVER,33.669526,-94.134884,Exact,US Census Geocoder (Public_AR_Current) geocoded from CMS Hospital General Information addresses,2026-05-23
041321,BAPTIST HEALTH MEDICAL CENTER-ARKADELPHIA,3050 TWIN RIVERS DRIVE,ARKADELPHIA,AR,71923,CLARK,34.124694,-93.086417,Exact,US Census Geocoder (Public_AR_Current) geocoded from CMS Hospital General Information addresses,2026-05-23
041322,BAXTER HEALTH FULTON COUNTY HOSPITAL,679 NORTH MAIN STREET,SALEM,AR,72576,FULTON,36.38342,-91.810979,Exact,US Census Geocoder (Public_AR_Current) geocoded from CMS Hospital General Information addresses,2026-05-23
041323,ASHLEY COUNTY MEDICAL CENTER,1015 UNITY ROAD,CROSSETT,AR,71635,ASHLEY,33.136197,-91.950642,Exact,US Census Geocoder (Public_AR_Current) geocoded from CMS Hospital General Information addresses,2026-05-23
041324,CHI ST VINCENT MORRILTON,#4 HOSPITAL DRIVE,MORRILTON,AR,72110,CONWAY,35.169289,-92.720077,Exact,US Census Geocoder (Public_AR_Current) geocoded from CMS Hospital General Information addresses,2026-05-23
041326,DELTA MEMORIAL HOSPITAL,811 HIGHWAY 65 SOUTH,DUMAS,AR,71639,DESHA,33.875089,-91.48182,Non_Exact,US Census Geocoder (Public_AR_Current) geocoded from CMS Hospital General Information addresses,2026-05-23
041327,BRADLEY COUNTY MEDICAL CENTER,404 SOUTH BRADLEY STREET,WARREN,AR,71671,BRADLEY,33.611007,-92.058722,Exact,US Census Geocoder (Public_AR_Current) geocoded from CMS Hospital General Information addresses,2026-05-23
041330,PIGGOTT COMMUNITY HOSPITAL,1206 GORDON DUCKWORTH DRIVE,PIGGOTT,AR,72454,CLAY,36.390756,-90.204669,Exact,US Census Geocoder (Public_AR_Current) geocoded from CMS Hospital General Information addresses,2026-05-23
041331,OZARKS COMMUNITY HOSPITAL OF GRAVETTE,1101 JACKSON STREET SW,GRAVETTE,AR,72736,BENTON,36.412203,-94.458168,Exact,US Census Geocoder (Public_AR_Current) geocoded from CMS Hospital General Information addresses,2026-05-23
041332,UNITY HEALTH - NEWPORT,1205 MCLAIN STREET,NEWPORT,AR,72112,JACKSON,35.608148,-91.265243,Exact,US Census Geocoder (Public_AR_Current) geocoded from CMS Hospital General Information addresses,2026-05-23
041334,MENA REGIONAL HEALTH SYSTEM,311 North Morrow Street,MENA,AR,71953,POLK,34.58855,-94.222435,Non_Exact,US Census Geocoder (Public_AR_Current) geocoded from CMS Hospital General Information addresses,2026-05-23
041335,SOUTHWEST REGIONAL MEDICAL CENTER LLC,2001 SOUTH MAIN,HOPE,AR,71801,HEMPSTEAD,33.649046,-93.586997,Non_Exact,US Census Geocoder (Public_AR_Current) geocoded from CMS Hospital General Information addresses,2026-05-23
043300,ARKANSAS CHILDREN'S HOSPITAL,"1 CHILDREN'S WAY, SLOT 301",LITTLE ROCK,AR,72202,PULASKI,34.743475,-92.291529,Non_Exact,US Census Geocoder (Public_AR_Current) geocoded from CMS Hospital General Information addresses,2026-05-23
043301,"ARKANSAS CHILDREN'S NORTHWEST, INC",2601 GENE GEORGE BOULEVARD,SPRINGDALE,AR,72762,WASHINGTON,36.162836,-94.192771,Non_Exact,US Census Geocoder (Public_AR_Current) geocoded from CMS Hospital General Information addresses,2026-05-23
044004,VISTA HEALTH FAYETTEVILLE,4253 CROSSOVER ROAD,FAYETTEVILLE,AR,72703,WASHINGTON,36.127876,-94.118758,Non_Exact,US Census Geocoder (Public_AR_Current) geocoded from CMS Hospital General Information addresses,2026-05-23
044005,BRIDGEWAY HOSPITAL,21 BRIDGEWAY ROAD,NORTH LITTLE ROCK,AR,72113,PULASKI,34.822744,-92.353946,Exact,US Census Geocoder (Public_AR_Current) geocoded from CMS Hospital General Information addresses,2026-05-23
044006,VALLEY BEHAVIORAL HEALTH SYSTEM,10301 MAYO DRIVE,BARLING,AR,72923,SEBASTIAN,35.34042,-94.318302,Exact,US Census Geocoder (Public_AR_Current) geocoded from CMS Hospital General Information addresses,2026-05-23
044007,RIVENDELL BEHAVIORAL HEALTH SERVICES,100 RIVENDELL DRIVE,BENTON,AR,72019,SALINE,34.612019,-92.530636,Exact,US Census Geocoder (Public_AR_Current) geocoded from CMS Hospital General Information addresses,2026-05-23
044011,ARKANSAS STATE HOSPITAL,305 S PALM STREET,LITTLE ROCK,AR,72205,PULASKI,34.751588,-92.325011,Exact,US Census Geocoder (Public_AR_Current) geocoded from CMS Hospital General Information addresses,2026-05-23
044017,UNITED METHODIST BEHAVIORAL HOSPITAL,1601 MURPHY DRIVE,MAUMELLE,AR,72113,PULASKI,34.877376,-92.394097,Exact,US Census Geocoder (Public_AR_Current) geocoded from CMS Hospital General Information addresses,2026-05-23
044019,SPRINGWOODS BEHAVIORAL HEALTH SERVICES,1955 WEST TRUCKER'S DRIVE,FAYETTEVILLE,AR,72704,WASHINGTON,36.109047,-94.185729,Exact,US Census Geocoder (Public_AR_Current) geocoded from CMS Hospital General Information addresses,2026-05-23
044020,RIVERVIEW BEHAVIORAL HEALTH,701 ARKANSAS BOULEVARD SUITE 300,TEXARKANA,AR,71854,MILLER,33.460259,-94.035645,Exact,US Census Geocoder (Public_AR_Current) geocoded from CMS Hospital General Information addresses,2026-05-23
044021,PERIMETER BEHAVIORAL HOSPITAL OF WEST MEMPHIS,600 NORTH 7TH STREET,WEST MEMPHIS,AR,72301,CRITTENDEN,35.152763,-90.175902,Exact,US Census Geocoder (Public_AR_Current) geocoded from CMS Hospital General Information addresses,2026-05-23
050002,ST ROSE HOSPITAL,27200 CALAROGA AVE,HAYWARD,CA,94545,ALAMEDA,37.634594,-122.089707,Exact,US Census Geocoder (Public_AR_Current) geocoded from CMS Hospital General Information addresses,2026-05-23
050006,PROVIDENCE ST JOSEPH HOSPITAL,2700 DOLBEER ST,EUREKA,CA,95501,HUMBOLDT,40.784509,-124.141554,Exact,US Census Geocoder (Public_AR_Current) geocoded from CMS Hospital General Information addresses,2026-05-23
050007,PENINSULA MEDICAL CENTER,1501 TROUSDALE DRIVE,BURLINGAME,CA,94010,SAN MATEO,37.594462,-122.383181,Exact,US Census Geocoder (Public_AR_Current) geocoded from CMS Hospital General Information addresses,2026-05-23
050008,CALIFORNIA PACIFIC MEDICAL CTR-DAVIES CAMPUS HOSP,601 DUBOCE AVENUE,SAN FRANCISCO,CA,94117,SAN FRANCISCO,37.769118,-122.433638,Non_Exact,US Census Geocoder (Public_AR_Current) geocoded from CMS Hospital General Information addresses,2026-05-23
050009,PROVIDENCE QUEEN OF THE VALLEY MEDICAL CENTER,1000 TRANCAS ST,NAPA,CA,94558,NAPA,38.32357,-122.296006,Exact,US Census Geocoder (Public_AR_Current) geocoded from CMS Hospital General Information addresses,2026-05-23
050013,ADVENTIST HEALTH ST HELENA,10 WOODLAND ROAD,SAINT HELENA,CA,94574,NAPA,38.544547,-122.475728,Exact,US Census Geocoder (Public_AR_Current) geocoded from CMS Hospital General Information addresses,2026-05-23
050014,SUTTER AMADOR HOSPITAL,200 MISSION BLVD,JACKSON,CA,95642,AMADOR,38.350033,-120.765932,Exact,US Census Geocoder (Public_AR_Current) geocoded from CMS Hospital General Information addresses,2026-05-23
050017,MERCY GENERAL HOSPITAL,4001 J ST,SACRAMENTO,CA,95819,SACRAMENTO,38.569736,-121.4536,Exact,US Census Geocoder (Public_AR_Current) geocoded from CMS Hospital General Information addresses,2026-05-23
050022,RIVERSIDE COMMUNITY HOSPITAL,4445 MAGNOLIA AVENUE,RIVERSIDE,CA,92501,RIVERSIDE,33.976231,-117.378386,Exact,US Census Geocoder (Public_AR_Current) geocoded from CMS Hospital General Information addresses,2026-05-23
050024,PARADISE VALLEY HOSPITAL,2400 EAST 4TH ST,NATIONAL CITY,CA,91950,SAN DIEGO,32.686134,-117.083587,Exact,US Census Geocoder (Public_AR_Current) geocoded from CMS Hospital General Information addresses,2026-05-23
050025,UC SAN DIEGO HEALTH HILLCREST - HILLCREST MED CTR,200 WEST ARBOR DRIVE,SAN DIEGO,CA,92103,SAN DIEGO,32.753807,-117.165551,Exact,US Census Geocoder (Public_AR_Current) geocoded from CMS Hospital General Information addresses,2026-05-23
050026,GROSSMONT HOSPITAL,5555 GROSSMONT CENTER DRIVE BOX 58,LA MESA,CA,91942,SAN DIEGO,32.779152,-117.008472,Exact,US Census Geocoder (Public_AR_Current) geocoded from CMS Hospital General Information addresses,2026-05-23
050028,MAD RIVER COMMUNITY HOSPITAL,3800 JANES RD,ARCATA,CA,95521,HUMBOLDT,40.897166,-124.092763,Exact,US Census Geocoder (Public_AR_Current) geocoded from CMS Hospital General Information addresses,2026-05-23
050030,OROVILLE HOSPITAL,2767 OLIVE HIGHWAY,OROVILLE,CA,95966,BUTTE,39.504554,-121.542027,Exact,US Census Geocoder (Public_AR_Current) geocoded from CMS Hospital General Information addresses,2026-05-23
050036,BAKERSFIELD MEMORIAL HOSPITAL,420 34TH ST,BAKERSFIELD,CA,93301,KERN,35.390528,-119.00657,Exact,US Census Geocoder (Public_AR_Current) geocoded from CMS Hospital General Information addresses,2026-05-23
050038,SANTA CLARA VALLEY MEDICAL CENTER,751 SOUTH BASCOM AVENUE,SAN JOSE,CA,95128,SANTA CLARA,37.316346,-121.93191,Exact,US Census Geocoder (Public_AR_Current) geocoded from CMS Hospital General Information addresses,2026-05-23
050039,ENLOE HEALTH,1531 ESPLANADE,CHICO,CA,95926,BUTTE,39.742373,-121.849012,Exact,US Census Geocoder (Public_AR_Current) geocoded from CMS Hospital General Information addresses,2026-05-23
050040,LAC/OLIVE VIEW-UCLA MEDICAL CENTER,14445 OLIVE VIEW DRIVE,SYLMAR,CA,91342,LOS ANGELES,34.32427,-118.447654,Exact,US Census Geocoder (Public_AR_Current) geocoded from CMS Hospital General Information addresses,2026-05-23
050042,ST ELIZABETH COMMUNITY HOSPITAL,2550 SISTER MARY COLUMBA DRIVE,RED BLUFF,CA,96080,TEHAMA,40.148857,-122.217986,Exact,US Census Geocoder (Public_AR_Current) geocoded from CMS Hospital General Information addresses,2026-05-23
050045,EL CENTRO REGIONAL MEDICAL CENTER,1415 ROSS AVENUE,EL CENTRO,CA,92243,IMPERIAL,32.781446,-115.568648,Exact,US Census Geocoder (Public_AR_Current) geocoded from CMS Hospital General Information addresses,2026-05-23
050047,CALIFORNIA PACIFIC MEDICAL CENTER- VAN NESS CAMPUS,1101 VAN NESS AVENUE,SAN FRANCISCO,CA,94109,SAN FRANCISCO,37.785723,-122.421554,Exact,US Census Geocoder (Public_AR_Current) geocoded from CMS Hospital General Information addresses,2026-05-23
050054,SAN GORGONIO MEMORIAL HOSPITAL,600 NORTH HIGHLAND SPRINGS AVENUE,BANNING,CA,92220,RIVERSIDE,33.932173,-116.946802,Non_Exact,US Census Geocoder (Public_AR_Current) geocoded from CMS Hospital General Information addresses,2026-05-23
050055,CALIFORNIA PACIFIC MEDICAL CENTER - MISSION BERNAL,3555 CESAR CHAVEZ,SAN FRANCISCO,CA,94110,SAN FRANCISCO,37.747988,-122.420875,Non_Exact,US Census Geocoder (Public_AR_Current) geocoded from CMS Hospital General Information addresses,2026-05-23
050056,ANTELOPE VALLEY HOSPITAL,1600 W AVE J,LANCASTER,CA,93534,LOS ANGELES,34.689286,-118.159604,Exact,US Census Geocoder (Public_AR_Current) geocoded from CMS Hospital General Information addresses,2026-05-23
050057,KAWEAH HEALTH MEDICAL CENTER,400 W MINERAL KING AVE,VISALIA,CA,93291,TULARE,36.327408,-119.295472,Exact,US Census Geocoder (Public_AR_Current) geocoded from CMS Hospital General Information addresses,2026-05-23
050058,GLENDALE MEM HOSPITAL & HLTH CENTER,1420 S CENTRAL AVE,GLENDALE,CA,91204,LOS ANGELES,34.128414,-118.257721,Exact,US Census Geocoder (Public_AR_Current) geocoded from CMS Hospital General Information addresses,2026-05-23
050060,COMMUNITY REGIONAL MEDICAL CENTER,2823 FRESNO STREET,FRESNO,CA,93721,FRESNO,36.742584,-119.783005,Exact,US Census Geocoder (Public_AR_Current) geocoded from CMS Hospital General Information addresses,2026-05-23
050063,HOLLYWOOD PRESBYTERIAN MEDICAL CENTER,1300 N VERMONT AVE,LOS ANGELES,CA,90027,LOS ANGELES,34.095607,-118.29168,Exact,US Census Geocoder (Public_AR_Current) geocoded from CMS Hospital General Information addresses,2026-05-23
050067,OAK VALLEY HOSPITAL DISTRICT,350 S OAK AVE,OAKDALE,CA,95361,STANISLAUS,37.757536,-120.860062,Exact,US Census Geocoder (Public_AR_Current) geocoded from CMS Hospital General Information addresses,2026-05-23
050069,PROVIDENCE ST. JOSEPH HOSPITAL,1100 WEST STEWART DR,ORANGE,CA,92868,ORANGE,33.78232,-117.865147,Exact,US Census Geocoder (Public_AR_Current) geocoded from CMS Hospital General Information addresses,2026-05-23
050070,KAISER FOUNDATION HOSPITAL - SOUTH SAN FRANCISCO,1200 EL CAMINO REAL,SOUTH SAN FRANCISCO,CA,94080,SAN MATEO,37.785353,-122.500952,Non_Exact,US Census Geocoder (Public_AR_Current) geocoded from CMS Hospital General Information addresses,2026-05-23
050072,KAISER FOUNDATION HOSPITAL - WALNUT CREEK,1425 S MAIN STREET,WALNUT CREEK,CA,94596,CONTRA COSTA,37.892212,-122.058161,Exact,US Census Geocoder (Public_AR_Current) geocoded from CMS Hospital General Information addresses,2026-05-23
050073,KAISER FOUNDATION HOSPITAL AND REHAB CENTER,975 SERENO DR,VALLEJO,CA,94589,SOLANO,38.128323,-122.247856,Exact,US Census Geocoder (Public_AR_Current) geocoded from CMS Hospital General Information addresses,2026-05-23
050075,KAISER FOUNDATION HOSPITAL - OAKLAND/RICHMOND,275 WEST MACARTHUR BOULEVARD,OAKLAND,CA,94611,ALAMEDA,37.823941,-122.257874,Non_Exact,US Census Geocoder (Public_AR_Current) geocoded from CMS Hospital General Information addresses,2026-05-23
050076,KAISER FOUNDATION HOSPITAL - SAN FRANCISCO,2425 GEARY BLVD,SAN FRANCISCO,CA,94115,SAN FRANCISCO,37.7827,-122.443194,Exact,US Census Geocoder (Public_AR_Current) geocoded from CMS Hospital General Information addresses,2026-05-23
050077,SCRIPPS MERCY HOSPITAL,4077 5TH AVE,SAN DIEGO,CA,92103,SAN DIEGO,32.751296,-117.161068,Exact,US Census Geocoder (Public_AR_Current) geocoded from CMS Hospital General Information addresses,2026-05-23
050078,PROVIDENCE LITTLE CO OF MARY MED CTR SAN PEDRO,1300 W 7TH ST,SAN PEDRO,CA,90732,LOS ANGELES,33.737956,-118.304841,Exact,US Census Geocoder (Public_AR_Current) geocoded from CMS Hospital General Information addresses,2026-05-23
050082,ST JOHNS REGIONAL MEDICAL CENTER,1600 N ROSE AVE,OXNARD,CA,93030,VENTURA,34.216405,-119.158349,Exact,US Census Geocoder (Public_AR_Current) geocoded from CMS Hospital General Information addresses,2026-05-23
050084,ST JOSEPH'S MEDICAL CENTER OF STOCKTON,1800 N CALIFORNIA ST,STOCKTON,CA,95204,SAN JOAQUIN,37.968471,-121.288544,Non_Exact,US Census Geocoder (Public_AR_Current) geocoded from CMS Hospital General Information addresses,2026-05-23
050089,COMMUNITY HOSPITAL OF SAN BERNARDINO,1805 MEDICAL CENTER DRIVE,SAN BERNARDINO,CA,92411,SAN BERNARDINO,34.131287,-117.322504,Non_Exact,US Census Geocoder (Public_AR_Current) geocoded from CMS Hospital General Information addresses,2026-05-23
050090,SONOMA VALLEY HOSPITAL,347 ANDRIEUX ST,SONOMA,CA,95476,SONOMA,38.288449,-122.46521,Exact,US Census Geocoder (Public_AR_Current) geocoded from CMS Hospital General Information addresses,2026-05-23
050091,COMMUNITY HOSPITAL OF HUNTINGTON PARK,2623 E SLAUSON AVE,HUNTINGTON PARK,CA,90255,LOS ANGELES,33.989272,-118.224573,Exact,US Census Geocoder (Public_AR_Current) geocoded from CMS Hospital General Information addresses,2026-05-23
050093,SAINT AGNES MEDICAL CENTER,1303 E HERNDON AVE,FRESNO,CA,93720,FRESNO,36.837253,-119.763246,Exact,US Census Geocoder (Public_AR_Current) geocoded from CMS Hospital General Information addresses,2026-05-23
050099,SAN ANTONIO REGIONAL HOSPITAL,999 SAN BERNARDINO ROAD,UPLAND,CA,91786,SAN BERNARDINO,34.101172,-117.63681,Exact,US Census Geocoder (Public_AR_Current) geocoded from CMS Hospital General Information addresses,2026-05-23
050100,SHARP MEMORIAL HOSPITAL,7901 FROST ST,SAN DIEGO,CA,92123,SAN DIEGO,32.800201,-117.155282,Exact,US Census Geocoder (Public_AR_Current) geocoded from CMS Hospital General Information addresses,2026-05-23
050101,SUTTER SOLANO MEDICAL CENTER,300 HOSPITAL DR,VALLEJO,CA,94589,SOLANO,38.131132,-122.23915,Exact,US Census Geocoder (Public_AR_Current) geocoded from CMS Hospital General Information addresses,2026-05-23
050102,PARKVIEW COMMUNITY HOSPITAL MEDICAL CENTER,3865 JACKSON STREET,RIVERSIDE,CA,92503,RIVERSIDE,33.925899,-117.440098,Exact,US Census Geocoder (Public_AR_Current) geocoded from CMS Hospital General Information addresses,2026-05-23
050103,ADVENTIST HEALTH WHITE MEMORIAL,1720 CESAR E CHAVEZ AVENUE,LOS ANGELES,CA,90033,LOS ANGELES,34.051012,-118.217335,Non_Exact,US Census Geocoder (Public_AR_Current) geocoded from CMS Hospital General Information addresses,2026-05-23
050107,MARIAN REGIONAL MEDICAL CENTER,1400 E CHURCH ST,SANTA MARIA,CA,93454,SANTA BARBARA,34.952036,-120.414597,Exact,US Census Geocoder (Public_AR_Current) geocoded from CMS Hospital General Information addresses,2026-05-23
050108,"SUTTER MEDICAL CENTER, SACRAMENTO",2825 CAPITOL AVENUE,SACRAMENTO,CA,95816,SACRAMENTO,38.570471,-121.470269,Exact,US Census Geocoder (Public_AR_Current) geocoded from CMS Hospital General Information addresses,2026-05-23
050110,LOMPOC VALLEY MEDICAL CENTER,1515 E OCEAN AVENUE,LOMPOC,CA,93436,SANTA BARBARA,34.639266,-120.439691,Exact,US Census Geocoder (Public_AR_Current) geocoded from CMS Hospital General Information addresses,2026-05-23
050112,SANTA MONICA - UCLA MED CTR & ORTHOPAEDIC HOSPITAL,1250 16TH STREET,SANTA MONICA,CA,90404,LOS ANGELES,34.02758,-118.486182,Exact,US Census Geocoder (Public_AR_Current) geocoded from CMS Hospital General Information addresses,2026-05-23
050113,SAN MATEO MEDICAL CENTER,222 W 39TH AVE,SAN MATEO,CA,94403,SAN MATEO,37.530034,-122.299737,Exact,US Census Geocoder (Public_AR_Current) geocoded from CMS Hospital General Information addresses,2026-05-23
050115,PALOMAR HEALTH DOWNTOWN CAMPUS,555 EAST VALLEY PARKWAY,ESCONDIDO,CA,92025,SAN DIEGO,33.126249,-117.075925,Exact,US Census Geocoder (Public_AR_Current) geocoded from CMS Hospital General Information addresses,2026-05-23
050116,NORTHRIDGE HOSPITAL MEDICAL CENTER,18300 ROSCOE BLVD,NORTHRIDGE,CA,91325,LOS ANGELES,34.220736,-118.531779,Exact,US Census Geocoder (Public_AR_Current) geocoded from CMS Hospital General Information addresses,2026-05-23
050118,DOCTORS HOSPITAL OF MANTECA,1205 E NORTH STREET,MANTECA,CA,95336,SAN JOAQUIN,37.801124,-121.19816,Non_Exact,US Census Geocoder (Public_AR_Current) geocoded from CMS Hospital General Information addresses,2026-05-23
050122,DAMERON HOSPITAL,525 WEST ACACIA STREET,STOCKTON,CA,95203,SAN JOAQUIN,37.961272,-121.300662,Non_Exact,US Census Geocoder (Public_AR_Current) geocoded from CMS Hospital General Information addresses,2026-05-23
050124,USC VERDUGO HILLS HOSPITAL,1812 VERDUGO BLVD,GLENDALE,CA,91208,LOS ANGELES,34.174427,-118.226022,Non_Exact,US Census Geocoder (Public_AR_Current) geocoded from CMS Hospital General Information addresses,2026-05-23
050125,REGIONAL MEDICAL CENTER OF SAN JOSE,225 N JACKSON AVENUE,SAN JOSE,CA,95116,SANTA CLARA,37.363388,-121.848399,Exact,US Census Geocoder (Public_AR_Current) geocoded from CMS Hospital General Information addresses,2026-05-23
050126,VALLEY PRESBYTERIAN HOSPITAL,15107 VANOWEN ST,VAN NUYS,CA,91405,LOS ANGELES,34.193977,-118.462016,Exact,US Census Geocoder (Public_AR_Current) geocoded from CMS Hospital General Information addresses,2026-05-23
050127,WOODLAND MEMORIAL HOSPITAL,1325 COTTONWOOD STREET,WOODLAND,CA,95695,YOLO,38.663171,-121.793332,Exact,US Census Geocoder (Public_AR_Current) geocoded from CMS Hospital General Information addresses,2026-05-23
050129,ST BERNARDINE MEDICAL CENTER,2101 N WATERMAN AVE,SAN BERNARDINO,CA,92404,SAN BERNARDINO,34.134109,-117.278707,Exact,US Census Geocoder (Public_AR_Current) geocoded from CMS Hospital General Information addresses,2026-05-23
050131,NOVATO COMMUNITY HOSPITAL,180 ROWLAND WAY,NOVATO,CA,94945,MARIN,38.097872,-122.55931,Exact,US Census Geocoder (Public_AR_Current) geocoded from CMS Hospital General Information addresses,2026-05-23
050132,SAN GABRIEL VALLEY MEDICAL CENTER,438 W LAS TUNAS DRIVE,SAN GABRIEL,CA,91776,LOS ANGELES,34.102405,-118.105192,Exact,US Census Geocoder (Public_AR_Current) geocoded from CMS Hospital General Information addresses,2026-05-23
050133,ADVENTIST HEALTH AND RIDEOUT,726 4TH ST,MARYSVILLE,CA,95901,YUBA,39.138665,-121.595031,Exact,US Census Geocoder (Public_AR_Current) geocoded from CMS Hospital General Information addresses,2026-05-23
050135,SOUTHERN CALIFORNIA HOSPITAL AT HOLLYWOOD,6245 DE LONGPRE AVE,HOLLYWOOD,CA,90028,LOS ANGELES,34.096247,-118.325037,Exact,US Census Geocoder (Public_AR_Current) geocoded from CMS Hospital General Information addresses,2026-05-23
050136,PETALUMA VALLEY HOSPITAL,400 N MCDOWELL BLVD,PETALUMA,CA,94954,SONOMA,38.253171,-122.632772,Exact,US Census Geocoder (Public_AR_Current) geocoded from CMS Hospital General Information addresses,2026-05-23
050137,KAISER FOUNDATION HOSPITAL - PANORAMA CITY,13652 CANTARA ST,PANORAMA CITY,CA,91402,LOS ANGELES,34.219788,-118.429672,Exact,US Census Geocoder (Public_AR_Current) geocoded from CMS Hospital General Information addresses,2026-05-23
050138,KAISER FOUNDATION HOSPITAL - LOS ANGELES,4867 SUNSET BLVD,LOS ANGELES,CA,90027,LOS ANGELES,34.098199,-118.294316,Non_Exact,US Census Geocoder (Public_AR_Current) geocoded from CMS Hospital General Information addresses,2026-05-23
050139,KAISER FOUNDATION HOSPITAL - DOWNEY,9333 IMPERIAL HIGHWAY,DOWNEY,CA,90242,LOS ANGELES,33.917109,-118.129102,Exact,US Census Geocoder (Public_AR_Current) geocoded from CMS Hospital General Information addresses,2026-05-23
050140,KAISER FOUNDATION HOSPITAL FONTANA/ONTARIO,9961 SIERRA AVE,FONTANA,CA,92335,SAN BERNARDINO,34.072596,-117.4356,Exact,US Census Geocoder (Public_AR_Current) geocoded from CMS Hospital General Information addresses,2026-05-23
050145,COMMUNITY HOSPITAL OF THE MONTEREY PENINSULA,23625 W R HOLMAN HIGHWAY,MONTEREY,CA,93940,MONTEREY,36.57904,-121.915118,Non_Exact,US Census Geocoder (Public_AR_Current) geocoded from CMS Hospital General Information addresses,2026-05-23
050149,CALIFORNIA HOSPITAL MEDICAL CENTER LA,1401 SOUTH GRAND AVENUE,LOS ANGELES,CA,90015,LOS ANGELES,34.037171,-118.265477,Exact,US Census Geocoder (Public_AR_Current) geocoded from CMS Hospital General Information addresses,2026-05-23
050150,SIERRA NEVADA MEMORIAL HOSPITAL,155 GLASSON WAY,GRASS VALLEY,CA,95945,NEVADA,39.228365,-121.046734,Exact,US Census Geocoder (Public_AR_Current) geocoded from CMS Hospital General Information addresses,2026-05-23
050152,UCSF HEALTH SAINT FRANCIS HOSPITAL,900 HYDE ST,SAN FRANCISCO,CA,94109,SAN FRANCISCO,37.78918,-122.416955,Exact,US Census Geocoder (Public_AR_Current) geocoded from CMS Hospital General Information addresses,2026-05-23
050158,ENCINO HOSPITAL MEDICAL CENTER,16237 VENTURA BLVD,ENCINO,CA,91436,LOS ANGELES,34.156905,-118.487122,Exact,US Census Geocoder (Public_AR_Current) geocoded from CMS Hospital General Information addresses,2026-05-23
050159,VENTURA COUNTY MEDICAL CENTER,300 HILLMONT AVENUE,VENTURA,CA,93003,VENTURA,34.277937,-119.253993,Exact,US Census Geocoder (Public_AR_Current) geocoded from CMS Hospital General Information addresses,2026-05-23
05015F,60th Medical Group (Travis AFB),101 Bodin Cir Bldg 777,Travis AFB,CA,94535,SOLANO,38.267846,-121.958617,Exact,US Census Geocoder (Public_AR_Current) geocoded from CMS Hospital General Information addresses,2026-05-23
050167,SAN JOAQUIN GENERAL HOSPITAL,500 W HOSPITAL ROAD,FRENCH CAMP,CA,95231,SAN JOAQUIN,37.886602,-121.284566,Exact,US Census Geocoder (Public_AR_Current) geocoded from CMS Hospital General Information addresses,2026-05-23
050168,PROVIDENCE ST. JUDE MEDICAL CENTER,101 E VALENCIA MESA DRIVE,FULLERTON,CA,92835,ORANGE,33.893502,-117.928343,Exact,US Census Geocoder (Public_AR_Current) geocoded from CMS Hospital General Information addresses,2026-05-23
050174,PROVIDENCE SANTA ROSA MEMORIAL HOSPITAL,1165 MONTGOMERY DR,SANTA ROSA,CA,95405,SONOMA,38.442883,-122.702108,Exact,US Census Geocoder (Public_AR_Current) geocoded from CMS Hospital General Information addresses,2026-05-23
050179,EMANUEL MEDICAL CENTER,825 DELBON AVE,TURLOCK,CA,95382,STANISLAUS,37.510539,-120.839518,Exact,US Census Geocoder (Public_AR_Current) geocoded from CMS Hospital General Information addresses,2026-05-23
050180,JOHN MUIR MEDICAL CENTER - WALNUT CREEK CAMPUS,1601 YGNACIO VALLEY RD,WALNUT CREEK,CA,94598,CONTRA COSTA,37.913822,-122.042733,Exact,US Census Geocoder (Public_AR_Current) geocoded from CMS Hospital General Information addresses,2026-05-23
050192,ADVENTIST HEALTH REEDLEY,372 W CYPRESS AVE,REEDLEY,CA,93654,FRESNO,36.60785,-119.451379,Exact,US Census Geocoder (Public_AR_Current) geocoded from CMS Hospital General Information addresses,2026-05-23
050194,WATSONVILLE COMMUNITY HOSPITAL,75 NIELSON STREET,WATSONVILLE,CA,95076,SANTA CRUZ,36.928225,-121.79359,Non_Exact,US Census Geocoder (Public_AR_Current) geocoded from CMS Hospital General Information addresses,2026-05-23
050195,WASHINGTON HOSPITAL,2000 MOWRY AVE,FREMONT,CA,94538,ALAMEDA,37.558473,-121.980094,Exact,US Census Geocoder (Public_AR_Current) geocoded from CMS Hospital General Information addresses,2026-05-23
050204,PALMDALE REGIONAL MEDICAL CENTER,38600 MEDICAL CENTER DRIVE,PALMDALE,CA,93552,LOS ANGELES,34.584289,-118.144328,Non_Exact,US Census Geocoder (Public_AR_Current) geocoded from CMS Hospital General Information addresses,2026-05-23
050211,ALAMEDA HOSPITAL,2070 CLINTON AVENUE,ALAMEDA,CA,94501,ALAMEDA,37.763223,-122.25373,Exact,US Census Geocoder (Public_AR_Current) geocoded from CMS Hospital General Information addresses,2026-05-23
050222,SHARP CHULA VISTA MEDICAL CENTER,751 MEDICAL CENTER COURT,CHULA VISTA,CA,91911,SAN DIEGO,32.617477,-117.022213,Exact,US Census Geocoder (Public_AR_Current) geocoded from CMS Hospital General Information addresses,2026-05-23
050224,HOAG MEMORIAL HOSPITAL PRESBYTERIAN,ONE HOAG DRIVE,NEWPORT BEACH,CA,92663,ORANGE,33.623982,-117.928863,Exact,US Census Geocoder (Public_AR_Current) geocoded from CMS Hospital General Information addresses,2026-05-23
050226,AHMC ANAHEIM REGIONAL MEDICAL CENTER,1111 W LA PALMA AVENUE,ANAHEIM,CA,92801,ORANGE,33.847189,-117.933853,Exact,US Census Geocoder (Public_AR_Current) geocoded from CMS Hospital General Information addresses,2026-05-23
050228,ZUCKERBERG SAN FRANCISCO GENERAL HOSP & TRAUMA CTR,1001 POTRERO AVENUE,SAN FRANCISCO,CA,94110,SAN FRANCISCO,37.756112,-122.40656,Exact,US Census Geocoder (Public_AR_Current) geocoded from CMS Hospital General Information addresses,2026-05-23
05022F,NMC San Diego,34800 Bob Wilson Dr,San Diego,CA,92134,SAN DIEGO,32.724604,-117.144635,Exact,US Census Geocoder (Public_AR_Current) geocoded from CMS Hospital General Information addresses,2026-05-23
050230,GARDEN GROVE HOSPITAL & MEDICAL CENTER,12601 GARDEN GROVE BLVD,GARDEN GROVE,CA,92843,ORANGE,33.774569,-117.914738,Exact,US Census Geocoder (Public_AR_Current) geocoded from CMS Hospital General Information addresses,2026-05-23
050231,POMONA VALLEY HOSPITAL MEDICAL CENTER,1798 N GAREY AVE,POMONA,CA,91767,LOS ANGELES,34.077842,-117.75228,Exact,US Census Geocoder (Public_AR_Current) geocoded from CMS Hospital General Information addresses,2026-05-23
050232,FRENCH HOSPITAL MEDICAL CENTER,1911 JOHNSON AVE,SAN LUIS OBISPO,CA,93401,SAN LUIS OBISPO,35.278181,-120.649837,Exact,US Census Geocoder (Public_AR_Current) geocoded from CMS Hospital General Information addresses,2026-05-23
050234,SHARP CORONADO HOSPITAL AND HLTHCR CTR,250 PROSPECT PLACE,CORONADO,CA,92118,SAN DIEGO,32.694261,-117.168042,Exact,US Census Geocoder (Public_AR_Current) geocoded from CMS Hospital General Information addresses,2026-05-23
050235,PROVIDENCE SAINT JOSEPH MEDICAL CTR,501 SOUTH BUENA VISTA STREET,BURBANK,CA,91505,LOS ANGELES,34.15594,-118.32708,Exact,US Census Geocoder (Public_AR_Current) geocoded from CMS Hospital General Information addresses,2026-05-23
050236,ADVENTIST HEALTH SIMI VALLEY,2975 N SYCAMORE DR,SIMI VALLEY,CA,93065,VENTURA,34.288693,-118.743974,Non_Exact,US Census Geocoder (Public_AR_Current) geocoded from CMS Hospital General Information addresses,2026-05-23
050238,USC ARCADIA HOSPITAL,300 W HUNTINGTON DR,ARCADIA,CA,91007,LOS ANGELES,34.136456,-118.040888,Exact,US Census Geocoder (Public_AR_Current) geocoded from CMS Hospital General Information addresses,2026-05-23
050239,GLENDALE ADVENTIST MEDICAL CENTER,1509 E WILSON TERRACE,GLENDALE,CA,91206,LOS ANGELES,34.149661,-118.231336,Non_Exact,US Census Geocoder (Public_AR_Current) geocoded from CMS Hospital General Information addresses,2026-05-23
050242,DOMINICAN HOSPITAL,1555 SOQUEL DRIVE,SANTA CRUZ,CA,95065,SANTA CRUZ,36.988233,-121.984357,Exact,US Census Geocoder (Public_AR_Current) geocoded from CMS Hospital General Information addresses,2026-05-23
050243,DESERT REGIONAL MEDICAL CENTER,1150 NORTH INDIAN CANYON DRIVE,PALM SPRINGS,CA,92262,RIVERSIDE,33.838433,-116.54552,Exact,US Census Geocoder (Public_AR_Current) geocoded from CMS Hospital General Information addresses,2026-05-23
050245,ARROWHEAD REGIONAL MEDICAL CENTER,400 NORTH PEPPER AVENUE,COLTON,CA,92324,SAN BERNARDINO,34.075519,-117.352854,Exact,US Census Geocoder (Public_AR_Current) geocoded from CMS Hospital General Information addresses,2026-05-23
050248,NATIVIDAD MEDICAL CENTER,1441 CONSTITUTION BOULEVARD,SALINAS,CA,93906,MONTEREY,36.695645,-121.63101,Exact,US Census Geocoder (Public_AR_Current) geocoded from CMS Hospital General Information addresses,2026-05-23
050254,MARSHALL MEDICAL CENTER,1100 MARSHALL WAY,PLACERVILLE,CA,95667,EL DORADO,38.724907,-120.790725,Exact,US Census Geocoder (Public_AR_Current) geocoded from CMS Hospital General Information addresses,2026-05-23
050257,"GOOD SAMARITAN HOSPITAL, LP",901 OLIVE DRIVE,BAKERSFIELD,CA,93308,KERN,35.41222,-119.039057,Exact,US Census Geocoder (Public_AR_Current) geocoded from CMS Hospital General Information addresses,2026-05-23
05025F,FRESNO VA MEDICAL CENTER (VA CENTRAL CALIFORNIA HEALTHCARE SYSTEM),2615 E. CLINTON AVENUE,FRESNO,CA,93703,FRESNO,36.772332,-119.780256,Exact,US Census Geocoder (Public_AR_Current) geocoded from CMS Hospital General Information addresses,2026-05-23
050261,SIERRA VIEW MEDICAL CENTER,465 W PUTNAM AVE,PORTERVILLE,CA,93257,TULARE,36.069472,-119.02732,Exact,US Census Geocoder (Public_AR_Current) geocoded from CMS Hospital General Information addresses,2026-05-23
050262,RONALD REAGAN UCLA MEDICAL CENTER,757 WESTWOOD PLAZA,LOS ANGELES,CA,90095,LOS ANGELES,34.065913,-118.445275,Exact,US Census Geocoder (Public_AR_Current) geocoded from CMS Hospital General Information addresses,2026-05-23
050272,REDLANDS COMMUNITY HOSPITAL,350 TERRACINA BLVD,REDLANDS,CA,92373,SAN BERNARDINO,34.043664,-117.211577,Exact,US Census Geocoder (Public_AR_Current) geocoded from CMS Hospital General Information addresses,2026-05-23
050276,CONTRA COSTA REGIONAL MEDICAL CENTER,2500 ALHAMBRA AVENUE,MARTINEZ,CA,94553,CONTRA COSTA,38.006421,-122.130907,Exact,US Census Geocoder (Public_AR_Current) geocoded from CMS Hospital General Information addresses,2026-05-23
050278,PROVIDENCE HOLY CROSS MEDICAL CENTER,15031 RINALDI ST,MISSION HILLS,CA,91346,LOS ANGELES,34.27906,-118.459667,Non_Exact,US Census Geocoder (Public_AR_Current) geocoded from CMS Hospital General Information addresses,2026-05-23
050279,HI-DESERT MEDICAL CENTER,6601 WHITE FEATHER ROAD,JOSHUA TREE,CA,92252,SAN BERNARDINO,34.133716,-116.27662,Exact,US Census Geocoder (Public_AR_Current) geocoded from CMS Hospital General Information addresses,2026-05-23
05027F,VA LONG BEACH HEALTHCARE SYSTEM,5901 E. SEVENTH STREET,LONG BEACH,CA,90822,LOS ANGELES,33.775378,-118.118871,Non_Exact,US Census Geocoder (Public_AR_Current) geocoded from CMS Hospital General Information addresses,2026-05-23
050280,MERCY MEDICAL CENTER REDDING,"2175 ROSALINE AVE, CLAIRMONT HGTS",REDDING,CA,96001,SHASTA,40.572616,-122.396233,Non_Exact,US Census Geocoder (Public_AR_Current) geocoded from CMS Hospital General Information addresses,2026-05-23
050281,ALHAMBRA HOSPITAL MEDICAL CENTER,100 S RAYMOND AVE,ALHAMBRA,CA,91801,LOS ANGELES,34.090246,-118.144919,Exact,US Census Geocoder (Public_AR_Current) geocoded from CMS Hospital General Information addresses,2026-05-23
050283,STANFORD HEALTH CARE TRI-VALLEY,5555 WEST LAS POSITAS BOULEVARD,PLEASANTON,CA,94588,ALAMEDA,37.687235,-121.888543,Exact,US Census Geocoder (Public_AR_Current) geocoded from CMS Hospital General Information addresses,2026-05-23
050289,AHMC SETON MEDICAL CENTER,1900 SULLIVAN AVENUE,DALY CITY,CA,94015,SAN MATEO,37.680548,-122.472947,Exact,US Census Geocoder (Public_AR_Current) geocoded from CMS Hospital General Information addresses,2026-05-23
050291,SUTTER SANTA ROSA REGIONAL HOSPITAL,30 MARK WEST SPRINGS ROAD,SANTA ROSA,CA,95403,SONOMA,38.496228,-122.752901,Exact,US Census Geocoder (Public_AR_Current) geocoded from CMS Hospital General Information addresses,2026-05-23
050292,RIVERSIDE UNIVERSITY HEALTH SYSTEM-MEDICAL CENTER,26520 CACTUS AVENUE,MORENO VALLEY,CA,92555,RIVERSIDE,33.910175,-117.197517,Exact,US Census Geocoder (Public_AR_Current) geocoded from CMS Hospital General Information addresses,2026-05-23
050295,MERCY HOSPITAL,2215 TRUXTUN AVENUE,BAKERSFIELD,CA,93301,KERN,35.373313,-119.027242,Exact,US Census Geocoder (Public_AR_Current) geocoded from CMS Hospital General Information addresses,2026-05-23
050298,BARSTOW COMMUNITY HOSPITAL,820 E MOUNTAIN VIEW STREET,BARSTOW,CA,92311,SAN BERNARDINO,34.893145,-117.017935,Exact,US Census Geocoder (Public_AR_Current) geocoded from CMS Hospital General Information addresses,2026-05-23
050301,ADVENTIST HEALTH UKIAH VALLEY,275 HOSPITAL DRIVE,UKIAH,CA,95482,MENDOCINO,39.15402,-123.2036,Exact,US Census Geocoder (Public_AR_Current) geocoded from CMS Hospital General Information addresses,2026-05-23
050305,ALTA BATES SUMMIT MEDICAL CENTER - ALTA BATES CAMP,2450 ASHBY AVENUE,BERKELEY,CA,94705,ALAMEDA,37.85516,-122.2671,Exact,US Census Geocoder (Public_AR_Current) geocoded from CMS Hospital General Information addresses,2026-05-23
050308,EL CAMINO HEALTH,2500 GRANT ROAD,MOUNTAIN VIEW,CA,94040,SANTA CLARA,37.369211,-122.077978,Exact,US Census Geocoder (Public_AR_Current) geocoded from CMS Hospital General Information addresses,2026-05-23
05030F,VA N CALIFORNIA HEALTHCARE SYSTEM,10535 HOSPITAL WAY,MATHER,CA,95655,SACRAMENTO,38.57175,-121.297357,Exact,US Census Geocoder (Public_AR_Current) geocoded from CMS Hospital General Information addresses,2026-05-23
050313,SUTTER TRACY COMMUNITY HOSPITAL,1420 NORTH TRACY BLVD,TRACY,CA,95376,SAN JOAQUIN,37.743669,-121.434867,Exact,US Census Geocoder (Public_AR_Current) geocoded from CMS Hospital General Information addresses,2026-05-23
050315,KERN MEDICAL CENTER,1700 MOUNT VERNON AVENUE,BAKERSFIELD,CA,93306,KERN,35.380997,-118.967507,Exact,US Census Geocoder (Public_AR_Current) geocoded from CMS Hospital General Information addresses,2026-05-23
05031F,PALO ALTO VA MEDICAL CENTER,3801 MIRANDA AVENUE,PALO ALTO,CA,94304,SANTA CLARA,37.40289,-122.141739,Exact,US Census Geocoder (Public_AR_Current) geocoded from CMS Hospital General Information addresses,2026-05-23
050320,HIGHLAND HOSPITAL,1411 EAST 31ST STREET,OAKLAND,CA,94602,ALAMEDA,37.79954,-122.233172,Exact,US Census Geocoder (Public_AR_Current) geocoded from CMS Hospital General Information addresses,2026-05-23
050324,SCRIPPS MEMORIAL HOSPITAL LA JOLLA,9888 GENESEE AVENUE,LA JOLLA,CA,92037,SAN DIEGO,32.885059,-117.222682,Exact,US Census Geocoder (Public_AR_Current) geocoded from CMS Hospital General Information addresses,2026-05-23
050327,LOMA LINDA UNIVERSITY MEDICAL CENTER,11234 ANDERSON ST,LOMA LINDA,CA,92354,SAN BERNARDINO,34.049923,-117.261201,Exact,US Census Geocoder (Public_AR_Current) geocoded from CMS Hospital General Information addresses,2026-05-23
050329,CORONA REGIONAL MEDICAL CENTER,800 SOUTH MAIN STREET,CORONA,CA,92882,RIVERSIDE,33.873284,-117.566716,Exact,US Census Geocoder (Public_AR_Current) geocoded from CMS Hospital General Information addresses,2026-05-23
050334,SALINAS VALLEY MEMORIAL HOSPITAL,450 EAST ROMIE LANE,SALINAS,CA,93901,MONTEREY,36.660134,-121.647162,Exact,US Census Geocoder (Public_AR_Current) geocoded from CMS Hospital General Information addresses,2026-05-23
050335,ADVENTIST HEALTH SONORA,1000 GREENLEY ROAD,SONORA,CA,95370,TUOLUMNE,37.977545,-120.370034,Exact,US Census Geocoder (Public_AR_Current) geocoded from CMS Hospital General Information addresses,2026-05-23
050342,PIONEERS MEMORIAL HEALTHCARE DISTRICT,207 WEST LEGION ROAD,BRAWLEY,CA,92227,IMPERIAL,32.959891,-115.553028,Exact,US Census Geocoder (Public_AR_Current) geocoded from CMS Hospital General Information addresses,2026-05-23
050348,UCI HEALTH-ORANGE,101 CITY DRIVE SOUTH,ORANGE,CA,92868,ORANGE,33.788864,-117.890751,Non_Exact,US Census Geocoder (Public_AR_Current) geocoded from CMS Hospital General Information addresses,2026-05-23
050350,ADVENTIST HEALTH WHITE MEMORIAL MONTEBELLO,309 W BEVERLY BLVD,MONTEBELLO,CA,90640,LOS ANGELES,34.015911,-118.100243,Exact,US Census Geocoder (Public_AR_Current) geocoded from CMS Hospital General Information addresses,2026-05-23
050351,TORRANCE MEMORIAL MEDICAL CENTER,3330 LOMITA BLVD,TORRANCE,CA,90509,LOS ANGELES,33.812452,-118.343401,Non_Exact,US Census Geocoder (Public_AR_Current) geocoded from CMS Hospital General Information addresses,2026-05-23
050352,BARTON MEMORIAL HOSPITAL,2170 SOUTH AVENUE,SOUTH LAKE TAHOE,CA,96150,EL DORADO,38.912293,-119.997233,Exact,US Census Geocoder (Public_AR_Current) geocoded from CMS Hospital General Information addresses,2026-05-23
050353,PROVIDENCE LITTLE COMPANY OF MARY MED CTR TORRANCE,4101 TORRANCE BLVD,TORRANCE,CA,90503,LOS ANGELES,33.837622,-118.355803,Exact,US Census Geocoder (Public_AR_Current) geocoded from CMS Hospital General Information addresses,2026-05-23
050357,GOLETA VALLEY COTTAGE HOSPITAL,351 S PATTERSON AVE,SANTA BARBARA,CA,93111,SANTA BARBARA,34.433068,-119.809796,Exact,US Census Geocoder (Public_AR_Current) geocoded from CMS Hospital General Information addresses,2026-05-23
050360,MARINHEALTH MEDICAL CENTER,250 BON AIR ROAD,GREENBRAE,CA,94904,MARIN,37.947594,-122.537538,Exact,US Census Geocoder (Public_AR_Current) geocoded from CMS Hospital General Information addresses,2026-05-23
050373,LOS ANGELES GENERAL MEDICAL CENTER,"2051 MARENGO ST, ROOM C2K100",LOS ANGELES,CA,90033,LOS ANGELES,34.057117,-118.208384,Non_Exact,US Census Geocoder (Public_AR_Current) geocoded from CMS Hospital General Information addresses,2026-05-23
050376,LAC/HARBOR-UCLA MED CENTER,1000 W CARSON ST,TORRANCE,CA,90509,LOS ANGELES,33.831531,-118.292136,Non_Exact,US Census Geocoder (Public_AR_Current) geocoded from CMS Hospital General Information addresses,2026-05-23
050378,PACIFICA HOSPITAL OF THE VALLEY,9449 SAN FERNANDO RD,SUN VALLEY,CA,91352,LOS ANGELES,34.240829,-118.395475,Exact,US Census Geocoder (Public_AR_Current) geocoded from CMS Hospital General Information addresses,2026-05-23
050380,GOOD SAMARITAN HOSPITAL,2425 SAMARITAN DRIVE,SAN JOSE,CA,95124,SANTA CLARA,37.251167,-121.945464,Exact,US Census Geocoder (Public_AR_Current) geocoded from CMS Hospital General Information addresses,2026-05-23
050382,EMANATE HEALTH INTER-COMMUNITY HOSPITAL,210 W  SAN BERNARDINO ROAD,COVINA,CA,91723,LOS ANGELES,34.089977,-117.892661,Exact,US Census Geocoder (Public_AR_Current) geocoded from CMS Hospital General Information addresses,2026-05-23
050390,HEMET GLOBAL MEDICAL CENTER,1117 EAST DEVONSHIRE,HEMET,CA,92543,RIVERSIDE,33.75118,-116.960579,Non_Exact,US Census Geocoder (Public_AR_Current) geocoded from CMS Hospital General Information addresses,2026-05-23
050393,PIH HEALTH DOWNEY HOSPITAL,11500 BROOKSHIRE AVENUE,DOWNEY,CA,90241,LOS ANGELES,33.935154,-118.131925,Exact,US Census Geocoder (Public_AR_Current) geocoded from CMS Hospital General Information addresses,2026-05-23
050394,COMMUNITY MEMORIAL HOSPITAL - VENTURA,147 NORTH BRENT STREET,VENTURA,CA,93003,VENTURA,34.274504,-119.257338,Exact,US Census Geocoder (Public_AR_Current) geocoded from CMS Hospital General Information addresses,2026-05-23
050396,SANTA BARBARA COTTAGE HOSPITAL,400 WEST PUEBLO,SANTA BARBARA,CA,93105,SANTA BARBARA,34.429427,-119.723189,Non_Exact,US Census Geocoder (Public_AR_Current) geocoded from CMS Hospital General Information addresses,2026-05-23
05039F,NH Twentynine Palms,1145 Sturgis Rd,Twentynine Palms,CA,92278,SAN BERNARDINO,34.225473,-116.048834,Exact,US Census Geocoder (Public_AR_Current) geocoded from CMS Hospital General Information addresses,2026-05-23
050407,CHINESE HOSPITAL,845 JACKSON ST,SAN FRANCISCO,CA,94133,SAN FRANCISCO,37.795685,-122.408909,Exact,US Census Geocoder (Public_AR_Current) geocoded from CMS Hospital General Information addresses,2026-05-23
050411,KAISER FOUNDATION HOSPITAL - SOUTH BAY,25825 SOUTH VERMONT AVENUE,HARBOR CITY,CA,90710,LOS ANGELES,33.789001,-118.294026,Exact,US Census Geocoder (Public_AR_Current) geocoded from CMS Hospital General Information addresses,2026-05-23
050414,MERCY HOSPITAL OF FOLSOM,1650 CREEKSIDE DRIVE,FOLSOM,CA,95630,SACRAMENTO,38.670957,-121.145976,Exact,US Census Geocoder (Public_AR_Current) geocoded from CMS Hospital General Information addresses,2026-05-23
050417,SUTTER COAST HOSPITAL,800 E WASHINGTON BLVD,CRESCENT CITY,CA,95531,DEL NORTE,41.772751,-124.194951,Exact,US Census Geocoder (Public_AR_Current) geocoded from CMS Hospital General Information addresses,2026-05-23
050424,SCRIPPS GREEN HOSPITAL,10666 NORTH TORREY PINES ROAD,LA JOLLA,CA,92037,SAN DIEGO,32.897571,-117.241885,Exact,US Census Geocoder (Public_AR_Current) geocoded from CMS Hospital General Information addresses,2026-05-23
050425,KAISER FOUNDATION HOSPITAL - SACRAMENTO,2025 MORSE AVENUE,SACRAMENTO,CA,95825,SACRAMENTO,38.60197,-121.392275,Exact,US Census Geocoder (Public_AR_Current) geocoded from CMS Hospital General Information addresses,2026-05-23
050426,WEST ANAHEIM MEDICAL CENTER,3033 W ORANGE AVENUE,ANAHEIM,CA,92804,ORANGE,33.824771,-117.996616,Exact,US Census Geocoder (Public_AR_Current) geocoded from CMS Hospital General Information addresses,2026-05-23
050438,HUNTINGTON HOSPITAL,100 W  CALIFORNIA BLVD,PASADENA,CA,91109,LOS ANGELES,34.135705,-118.154034,Non_Exact,US Census Geocoder (Public_AR_Current) geocoded from CMS Hospital General Information addresses,2026-05-23
050444,MERCY MEDICAL CENTER,333 MERCY AVENUE,MERCED,CA,95340,MERCED,37.340382,-120.465224,Exact,US Census Geocoder (Public_AR_Current) geocoded from CMS Hospital General Information addresses,2026-05-23
050454,UCSF MEDICAL CENTER,"505 PARNASSUS AVE, BOX 0296",SAN FRANCISCO,CA,94143,SAN FRANCISCO,37.762922,-122.459584,Exact,US Census Geocoder (Public_AR_Current) geocoded from CMS Hospital General Information addresses,2026-05-23
050455,ADVENTIST HEALTH BAKERSFIELD,2615 CHESTER AVENUE,BAKERSFIELD,CA,93301,KERN,35.383069,-119.018843,Exact,US Census Geocoder (Public_AR_Current) geocoded from CMS Hospital General Information addresses,2026-05-23
050457,UCSF HEALTH ST. MARY'S HOSPITAL,450 STANYAN ST,SAN FRANCISCO,CA,94117,SAN FRANCISCO,37.773796,-122.454395,Exact,US Census Geocoder (Public_AR_Current) geocoded from CMS Hospital General Information addresses,2026-05-23
050464,DOCTORS MEDICAL CENTER,1441 FLORIDA AVENUE,MODESTO,CA,95350,STANISLAUS,37.664989,-120.996284,Exact,US Census Geocoder (Public_AR_Current) geocoded from CMS Hospital General Information addresses,2026-05-23
050468,MEMORIAL HOSPITAL OF GARDENA,1145 W REDONDO BEACH BLVD,GARDENA,CA,90247,LOS ANGELES,33.89245,-118.295079,Exact,US Census Geocoder (Public_AR_Current) geocoded from CMS Hospital General Information addresses,2026-05-23
050471,PIH HEALTH GOOD SAMARITAN HOSPITAL,1225 WILSHIRE BOULEVARD,LOS ANGELES,CA,90017,LOS ANGELES,34.053254,-118.265291,Exact,US Census Geocoder (Public_AR_Current) geocoded from CMS Hospital General Information addresses,2026-05-23
050481,UCLA WEST VALLEY MEDICAL CENTER,7300 MEDICAL CENTER DR,WEST HILLS,CA,91307,LOS ANGELES,34.202402,-118.629392,Exact,US Census Geocoder (Public_AR_Current) geocoded from CMS Hospital General Information addresses,2026-05-23
050485,MEMORIALCARE LONG BEACH MEDICAL CENTER,2801 ATLANTIC AVE,LONG BEACH,CA,90806,LOS ANGELES,33.807778,-118.185079,Exact,US Census Geocoder (Public_AR_Current) geocoded from CMS Hospital General Information addresses,2026-05-23
050488,EDEN MEDICAL CENTER,20103 LAKE CHABOT ROAD,CASTRO VALLEY,CA,94546,ALAMEDA,37.69791,-122.087309,Exact,US Census Geocoder (Public_AR_Current) geocoded from CMS Hospital General Information addresses,2026-05-23
050496,JOHN MUIR MEDICAL CENTER - CONCORD CAMPUS,2540 EAST ST,CONCORD,CA,94520,CONTRA COSTA,37.983267,-122.034393,Exact,US Census Geocoder (Public_AR_Current) geocoded from CMS Hospital General Information addresses,2026-05-23
050498,SUTTER AUBURN FAITH HOSPITAL,11815 EDUCATION STREET,AUBURN,CA,95603,PLACER,38.944357,-121.101123,Non_Exact,US Census Geocoder (Public_AR_Current) geocoded from CMS Hospital General Information addresses,2026-05-23
050503,SCRIPPS MEMORIAL HOSPITAL - ENCINITAS,354 SANTA FE DRIVE,ENCINITAS,CA,92024,SAN DIEGO,33.036287,-117.285375,Exact,US Census Geocoder (Public_AR_Current) geocoded from CMS Hospital General Information addresses,2026-05-23
050506,ADVENTIST HEALTH SIERRA VISTA,1010 MURRAY ST,SAN LUIS OBISPO,CA,93405,SAN LUIS OBISPO,35.290994,-120.666195,Exact,US Census Geocoder (Public_AR_Current) geocoded from CMS Hospital General Information addresses,2026-05-23
050510,KAISER FOUNDATION HOSPITAL,99 MONTECILLO RD,SAN RAFAEL,CA,94903,MARIN,38.004262,-122.553889,Exact,US Census Geocoder (Public_AR_Current) geocoded from CMS Hospital General Information addresses,2026-05-23
050512,KAISER FOUNDATION HOSPITAL - FREMONT,39400 PASEO PADRE PKWY,FREMONT,CA,94538,ALAMEDA,37.55152,-121.976792,Exact,US Census Geocoder (Public_AR_Current) geocoded from CMS Hospital General Information addresses,2026-05-23
050515,KAISER FOUNDATION HOSPITAL - SAN DIEGO,4647 ZION AVE,SAN DIEGO,CA,92120,SAN DIEGO,32.792915,-117.095433,Exact,US Census Geocoder (Public_AR_Current) geocoded from CMS Hospital General Information addresses,2026-05-23
050516,MERCY SAN JUAN MEDICAL CENTER,6501 COYLE AVE,CARMICHAEL,CA,95608,SACRAMENTO,38.668057,-121.313898,Exact,US Census Geocoder (Public_AR_Current) geocoded from CMS Hospital General Information addresses,2026-05-23
050517,VICTOR VALLEY GLOBAL MEDICAL CENTER,15248 11TH ST,VICTORVILLE,CA,92395,SAN BERNARDINO,34.528026,-117.292578,Exact,US Census Geocoder (Public_AR_Current) geocoded from CMS Hospital General Information addresses,2026-05-23
050526,HUNTINGTON BEACH HOSPITAL,17772 BEACH BLVD,HUNTINGTON BEACH,CA,92647,ORANGE,33.704204,-117.989006,Exact,US Census Geocoder (Public_AR_Current) geocoded from CMS Hospital General Information addresses,2026-05-23
050528,MEMORIAL HOSPITAL LOS BANOS,520 WEST I ST,LOS BANOS,CA,93635,MERCED,37.063483,-120.859484,Exact,US Census Geocoder (Public_AR_Current) geocoded from CMS Hospital General Information addresses,2026-05-23
050534,JOHN F KENNEDY MEMORIAL HOSPITAL,47111 MONROE STREET,INDIO,CA,92201,RIVERSIDE,33.706135,-116.233942,Exact,US Census Geocoder (Public_AR_Current) geocoded from CMS Hospital General Information addresses,2026-05-23
050537,SUTTER DAVIS HOSPITAL,2000 SUTTER PLACE,DAVIS,CA,95616,YOLO,38.560993,-121.772497,Exact,US Census Geocoder (Public_AR_Current) geocoded from CMS Hospital General Information addresses,2026-05-23
